{"features":[{"geometry":{"coordinates":[34.9497949,29.5569348],"type":"Point"},"properties":{"name":"Eilat","kind":"city","population":53151},"type":"Feature"},{"geometry":{"coordinates":[35.2257626,31.7788242],"type":"Point"},"properties":{"name":"Jerusalem","kind":"capital","population":981711},"type":"Feature"},{"geometry":{"coordinates":[35.5052619,32.7054565],"type":"Point"},"properties":{"name":"Yavneel","kind":"village","population":4542},"type":"Feature"},{"geometry":{"coordinates":[34.9057861,32.5114971],"type":"Point"},"properties":{"name":"Caesarea","kind":"town","population":5997},"type":"Feature"},{"geometry":{"coordinates":[35.0945579,33.006306],"type":"Point"},"properties":{"name":"Nahariyya","kind":"city","population":80000},"type":"Feature"},{"geometry":{"coordinates":[34.8933053,32.4921593],"type":"Point"},"properties":{"name":"S'dot Yam","kind":"village","population":1162},"type":"Feature"},{"geometry":{"coordinates":[34.6529922,31.7977314],"type":"Point"},"properties":{"name":"Ashdod","kind":"city","population":226827},"type":"Feature"},{"geometry":{"coordinates":[34.7804076,32.0193121],"type":"Point"},"properties":{"name":"Holon","kind":"city","population":197957},"type":"Feature"},{"geometry":{"coordinates":[34.8629898,32.0270045],"type":"Point"},"properties":{"name":"Or Yehuda","kind":"city","population":38854},"type":"Feature"},{"geometry":{"coordinates":[34.8101149,31.9635712],"type":"Point"},"properties":{"name":"Rishon LeZion","kind":"city","population":260453},"type":"Feature"},{"geometry":{"coordinates":[34.7990609,31.9295577],"type":"Point"},"properties":{"name":"Ness Ziona","kind":"town","population":50341},"type":"Feature"},{"geometry":{"coordinates":[35.3183216,32.7023065],"type":"Point"},"properties":{"name":"Nof HaGalil","kind":"town","population":44184},"type":"Feature"},{"geometry":{"coordinates":[35.1088651,31.806353],"type":"Point"},"properties":{"name":"Abu Ghosh","kind":"village","population":7942},"type":"Feature"},{"geometry":{"coordinates":[35.1012545,31.8035128],"type":"Point"},"properties":{"name":"Kiryat Yearim","kind":"village","population":800},"type":"Feature"},{"geometry":{"coordinates":[35.1115939,31.8174857],"type":"Point"},"properties":{"name":"Maale HaHamisha","kind":"village","population":862},"type":"Feature"},{"geometry":{"coordinates":[34.8398648,31.9443532],"type":"Point"},"properties":{"name":"Beer Yaakov","kind":"town","population":31325},"type":"Feature"},{"geometry":{"coordinates":[34.8299871,32.1568799],"type":"Point"},"properties":{"name":"Glil Yam","kind":"village","population":562},"type":"Feature"},{"geometry":{"coordinates":[34.8660021,32.2592916],"type":"Point"},"properties":{"name":"Beit Yehoshua","kind":"village","population":1117},"type":"Feature"},{"geometry":{"coordinates":[34.8696976,32.2527746],"type":"Point"},"properties":{"name":"Tel Izhak","kind":"village","population":834},"type":"Feature"},{"geometry":{"coordinates":[34.886767,32.2724852],"type":"Point"},"properties":{"name":"Even Yehuda","kind":"town","population":14365},"type":"Feature"},{"geometry":{"coordinates":[34.9533225,32.0952929],"type":"Point"},"properties":{"name":"Rosh HaAyin","kind":"town","population":73678},"type":"Feature"},{"geometry":{"coordinates":[34.9235073,32.0777377],"type":"Point"},"properties":{"name":"Kfar Sirkin","kind":"village","population":1519},"type":"Feature"},{"geometry":{"coordinates":[34.9136499,32.0589718],"type":"Point"},"properties":{"name":"Nehalim","kind":"village","population":1825},"type":"Feature"},{"geometry":{"coordinates":[35.0089029,32.2671249],"type":"Point"},"properties":{"name":"Taibe","kind":"city","population":46020},"type":"Feature"},{"geometry":{"coordinates":[34.9422744,32.690712],"type":"Point"},"properties":{"name":"Atlit","kind":"town","population":10929},"type":"Feature"},{"geometry":{"coordinates":[34.9318092,32.6791606],"type":"Point"},"properties":{"name":"Neve Yam","kind":"village","population":235},"type":"Feature"},{"geometry":{"coordinates":[34.92063,32.6138484],"type":"Point"},"properties":{"name":"Nahsholim","kind":"village","population":704},"type":"Feature"},{"geometry":{"coordinates":[34.9166572,32.5553209],"type":"Point"},"properties":{"name":"Maagan Michael","kind":"village","population":2074},"type":"Feature"},{"geometry":{"coordinates":[34.9195677,32.5090151],"type":"Point"},"properties":{"name":"Or Akiva","kind":"town","population":20874},"type":"Feature"},{"geometry":{"coordinates":[35.0651321,31.7974834],"type":"Point"},"properties":{"name":"Shoresh","kind":"village","population":1195},"type":"Feature"},{"geometry":{"coordinates":[35.0360826,31.7938835],"type":"Point"},"properties":{"name":"Beit Meir","kind":"village","population":765},"type":"Feature"},{"geometry":{"coordinates":[35.0007321,31.7315665],"type":"Point"},"properties":{"name":"Zanoah","kind":"village","population":530},"type":"Feature"},{"geometry":{"coordinates":[35.0069297,31.9085744],"type":"Point"},"properties":{"name":"Modiin-Maccabim-Reut","kind":"city","population":99171},"type":"Feature"},{"geometry":{"coordinates":[34.8930354,32.1561974],"type":"Point"},"properties":{"name":"Hod HaSharon","kind":"town","population":65614},"type":"Feature"},{"geometry":{"coordinates":[35.1723866,32.8045765],"type":"Point"},"properties":{"name":"Shefaram","kind":"city","population":43543},"type":"Feature"},{"geometry":{"coordinates":[35.1163747,32.8115853],"type":"Point"},"properties":{"name":"Qiryat Ata","kind":"town","population":25000},"type":"Feature"},{"geometry":{"coordinates":[35.1001125,32.8910595],"type":"Point"},"properties":{"name":"Kfar Masarik","kind":"village","population":902},"type":"Feature"},{"geometry":{"coordinates":[35.0965233,32.9504776],"type":"Point"},"properties":{"name":"Shomrat","kind":"village","population":800},"type":"Feature"},{"geometry":{"coordinates":[35.097375,32.9628515],"type":"Point"},"properties":{"name":"Lohamei HaGetaot","kind":"village","population":800},"type":"Feature"},{"geometry":{"coordinates":[34.8411635,31.8514378],"type":"Point"},"properties":{"name":"Mazkeret Batya","kind":"town","population":15726},"type":"Feature"},{"geometry":{"coordinates":[34.9761087,32.475041],"type":"Point"},"properties":{"name":"Pardes Hana-Karkur","kind":"town","population":44840},"type":"Feature"},{"geometry":{"coordinates":[34.8779919,32.2143238],"type":"Point"},"properties":{"name":"Bazra","kind":"village","population":1178},"type":"Feature"},{"geometry":{"coordinates":[34.9220495,32.2279787],"type":"Point"},"properties":{"name":"Mishmeret","kind":"village","population":1058},"type":"Feature"},{"geometry":{"coordinates":[34.9150051,32.2402969],"type":"Point"},"properties":{"name":"Herut","kind":"village","population":800},"type":"Feature"},{"geometry":{"coordinates":[34.9125436,32.2764459],"type":"Point"},"properties":{"name":"Kadima","kind":"village","population":800},"type":"Feature"},{"geometry":{"coordinates":[34.9492529,32.0614545],"type":"Point"},"properties":{"name":"Nahshonim","kind":"village","population":435},"type":"Feature"},{"geometry":{"coordinates":[34.7680435,31.5635204],"type":"Point"},"properties":{"name":"Shalva","kind":"village","population":579},"type":"Feature"},{"geometry":{"coordinates":[34.8860426,32.1661738],"type":"Point"},"properties":{"name":"Ramot HaShavim","kind":"village","population":1709},"type":"Feature"},{"geometry":{"coordinates":[34.4722219,30.7916672],"type":"Point"},"properties":{"name":"Ezuz","kind":"village","population":86},"type":"Feature"},{"geometry":{"coordinates":[34.8558152,31.8745635],"type":"Point"},"properties":{"name":"Ramot Meir","kind":"village","population":757},"type":"Feature"},{"geometry":{"coordinates":[35.0579576,31.7444618],"type":"Point"},"properties":{"name":"Nes Harim","kind":"village","population":1486},"type":"Feature"},{"geometry":{"coordinates":[34.7677914,31.9159502],"type":"Point"},"properties":{"name":"Ayanot","kind":"village","population":342},"type":"Feature"},{"geometry":{"coordinates":[35.1211467,32.9656707],"type":"Point"},"properties":{"name":"Nes Ammim","kind":"village","population":457},"type":"Feature"},{"geometry":{"coordinates":[34.4072666,31.2417561],"type":"Point"},"properties":{"name":"Mivtahim","kind":"village","population":455},"type":"Feature"},{"geometry":{"coordinates":[34.7744439,31.9444441],"type":"Point"},"properties":{"name":"Netaim","kind":"village","population":626},"type":"Feature"},{"geometry":{"coordinates":[34.9850386,32.4874752],"type":"Point"},"properties":{"name":"Mishmarot","kind":"village","population":1252},"type":"Feature"},{"geometry":{"coordinates":[35.1522509,32.6820586],"type":"Point"},"properties":{"name":"Kfar Yehoshua","kind":"village","population":1251},"type":"Feature"},{"geometry":{"coordinates":[34.9465718,31.7919952],"type":"Point"},"properties":{"name":"Kfar Uriya","kind":"village","population":910},"type":"Feature"},{"geometry":{"coordinates":[34.521977,31.3041665],"type":"Point"},"properties":{"name":"Urim","kind":"village","population":510},"type":"Feature"},{"geometry":{"coordinates":[34.966859,32.2738189],"type":"Point"},"properties":{"name":"Kfar Yabez","kind":"village","population":661},"type":"Feature"},{"geometry":{"coordinates":[34.7241807,31.7199638],"type":"Point"},"properties":{"name":"Kfar Warburg","kind":"village","population":1114},"type":"Feature"},{"geometry":{"coordinates":[35.3624076,32.5682864],"type":"Point"},"properties":{"name":"Kfar Yehezkel","kind":"village","population":1242},"type":"Feature"},{"geometry":{"coordinates":[34.8751918,32.3809359],"type":"Point"},"properties":{"name":"Kfar Vitkin","kind":"village","population":2002},"type":"Feature"},{"geometry":{"coordinates":[35.1144019,32.7955189],"type":"Point"},"properties":{"name":"Usha","kind":"village","population":628},"type":"Feature"},{"geometry":{"coordinates":[34.921667,31.980556],"type":"Point"},"properties":{"name":"Kfar Truman","kind":"village","population":905},"type":"Feature"},{"geometry":{"coordinates":[34.8570894,31.8837553],"type":"Point"},"properties":{"name":"Naan","kind":"village","population":1794},"type":"Feature"},{"geometry":{"coordinates":[35.0366482,31.0686612],"type":"Point"},"properties":{"name":"Dimona","kind":"city","population":36776},"type":"Feature"},{"geometry":{"coordinates":[35.5175202,33.0813243],"type":"Point"},"properties":{"name":"Dishon","kind":"village","population":339},"type":"Feature"},{"geometry":{"coordinates":[34.9326218,31.9332996],"type":"Point"},"properties":{"name":"Kfar Daniel","kind":"village","population":678},"type":"Feature"},{"geometry":{"coordinates":[34.823337,31.8607858],"type":"Point"},"properties":{"name":"Kiryat Ekron","kind":"village","population":800},"type":"Feature"},{"geometry":{"coordinates":[34.8232634,31.4134736],"type":"Point"},"properties":{"name":"Dvir","kind":"village","population":1071},"type":"Feature"},{"geometry":{"coordinates":[35.6101218,33.1723656],"type":"Point"},"properties":{"name":"Kfar Blum","kind":"village","population":771},"type":"Feature"},{"geometry":{"coordinates":[35.2635109,32.553108],"type":"Point"},"properties":{"name":"Dvora","kind":"village","population":225},"type":"Feature"},{"geometry":{"coordinates":[35.5116985,33.0992486],"type":"Point"},"properties":{"name":"Malkiya","kind":"village","population":800},"type":"Feature"},{"geometry":{"coordinates":[35.301291,32.5457376],"type":"Point"},"properties":{"name":"Meitav","kind":"village","population":456},"type":"Feature"},{"geometry":{"coordinates":[35.4750001,32.495833],"type":"Point"},"properties":{"name":"Mesilot","kind":"village","population":484},"type":"Feature"},{"geometry":{"coordinates":[34.7190625,31.8138222],"type":"Point"},"properties":{"name":"Qevuzat Yavne","kind":"village","population":940},"type":"Feature"},{"geometry":{"coordinates":[35.440278,32.9886409],"type":"Point"},"properties":{"name":"Meron","kind":"village","population":1136},"type":"Feature"},{"geometry":{"coordinates":[34.7531216,31.8175349],"type":"Point"},"properties":{"name":"Meishar","kind":"village","population":835},"type":"Feature"},{"geometry":{"coordinates":[35.0115252,31.8018055],"type":"Point"},"properties":{"name":"Messilat Zion","kind":"village","population":1247},"type":"Feature"},{"geometry":{"coordinates":[34.7446145,31.7316015],"type":"Point"},"properties":{"name":"Kiryat Malachi","kind":"town","population":25000},"type":"Feature"},{"geometry":{"coordinates":[35.5555869,32.6670217],"type":"Point"},"properties":{"name":"Menahamiya","kind":"village","population":1065},"type":"Feature"},{"geometry":{"coordinates":[34.7711983,31.6093998],"type":"Point"},"properties":{"name":"Kiryat Gat","kind":"city","population":80000},"type":"Feature"},{"geometry":{"coordinates":[34.5959269,31.3900104],"type":"Point"},"properties":{"name":"Melilot","kind":"village","population":398},"type":"Feature"},{"geometry":{"coordinates":[35.3584971,32.8817394],"type":"Point"},"properties":{"name":"Lotem","kind":"village","population":793},"type":"Feature"},{"geometry":{"coordinates":[35.0381249,32.7708797],"type":"Point"},"properties":{"name":"Nesher","kind":"town","population":23761},"type":"Feature"},{"geometry":{"coordinates":[35.214581,31.2612199],"type":"Point"},"properties":{"name":"Arad","kind":"city","population":28170},"type":"Feature"},{"geometry":{"coordinates":[35.0787582,32.505951],"type":"Point"},"properties":{"name":"'Ara","kind":"village","population":800},"type":"Feature"},{"geometry":{"coordinates":[35.0476791,32.4404285],"type":"Point"},"properties":{"name":"Metzer","kind":"village","population":396},"type":"Feature"},{"geometry":{"coordinates":[34.9956875,31.6597433],"type":"Point"},"properties":{"name":"Aderet","kind":"village","population":895},"type":"Feature"},{"geometry":{"coordinates":[35.2711676,32.5490732],"type":"Point"},"properties":{"name":"Adirim","kind":"village","population":280},"type":"Feature"},{"geometry":{"coordinates":[35.1278912,32.8401655],"type":"Point"},"properties":{"name":"Afek","kind":"village","population":763},"type":"Feature"},{"geometry":{"coordinates":[34.8807983,31.2225371],"type":"Point"},"properties":{"name":"Nevatim","kind":"village","population":1068},"type":"Feature"},{"geometry":{"coordinates":[34.844046,31.8918834],"type":"Point"},"properties":{"name":"Sitria","kind":"village","population":800},"type":"Feature"},{"geometry":{"coordinates":[35.5486672,33.2477885],"type":"Point"},"properties":{"name":"Misgav Am","kind":"village","population":360},"type":"Feature"},{"geometry":{"coordinates":[34.5885811,31.3253422],"type":"Point"},"properties":{"name":"Maslul","kind":"village","population":951},"type":"Feature"},{"geometry":{"coordinates":[34.6949023,31.7537708],"type":"Point"},"properties":{"name":"Azriqam","kind":"village","population":1538},"type":"Feature"},{"geometry":{"coordinates":[34.9712077,32.2629094],"type":"Point"},"properties":{"name":"Azri'el","kind":"village","population":876},"type":"Feature"},{"geometry":{"coordinates":[35.5438245,32.968215],"type":"Point"},"properties":{"name":"Rosh Pina","kind":"town","population":3308},"type":"Feature"},{"geometry":{"coordinates":[35.2494826,32.8309185],"type":"Point"},"properties":{"name":"Kaukab Abu al-Hija","kind":"village","population":3773},"type":"Feature"},{"geometry":{"coordinates":[34.9825964,32.7005017],"type":"Point"},"properties":{"name":"Ein Hod","kind":"village","population":664},"type":"Feature"},{"geometry":{"coordinates":[35.4258324,32.5181674],"type":"Point"},"properties":{"name":"Haftsiba","kind":"village","population":800},"type":"Feature"},{"geometry":{"coordinates":[34.8324376,32.0873899],"type":"Point"},"properties":{"name":"Bnei Brak","kind":"town","population":218357},"type":"Feature"},{"geometry":{"coordinates":[34.8113279,32.0729606],"type":"Point"},"properties":{"name":"Givatayim","kind":"town","population":61924},"type":"Feature"},{"geometry":{"coordinates":[34.9001418,32.3539817],"type":"Point"},"properties":{"name":"Kfar Hayyim","kind":"village","population":629},"type":"Feature"},{"geometry":{"coordinates":[34.9033593,32.3564792],"type":"Point"},"properties":{"name":"Mishmar HaSharon","kind":"village","population":627},"type":"Feature"},{"geometry":{"coordinates":[34.9162242,32.3475348],"type":"Point"},"properties":{"name":"Kfar Monash","kind":"village","population":913},"type":"Feature"},{"geometry":{"coordinates":[34.9504619,32.3060551],"type":"Point"},"properties":{"name":"Yanuv","kind":"village","population":937},"type":"Feature"},{"geometry":{"coordinates":[34.9474014,32.2962452],"type":"Point"},"properties":{"name":"Geulim","kind":"village","population":993},"type":"Feature"},{"geometry":{"coordinates":[34.9450516,32.288103],"type":"Point"},"properties":{"name":"Zoran","kind":"village","population":800},"type":"Feature"},{"geometry":{"coordinates":[34.9801701,32.2848603],"type":"Point"},"properties":{"name":"Kalanswa","kind":"town","population":24205},"type":"Feature"},{"geometry":{"coordinates":[35.0048861,32.3054855],"type":"Point"},"properties":{"name":"Nitzaney Oz","kind":"village","population":1121},"type":"Feature"},{"geometry":{"coordinates":[35.0060999,32.3255163],"type":"Point"},"properties":{"name":"Yad Hanna","kind":"village","population":1009},"type":"Feature"},{"geometry":{"coordinates":[35.012351,32.3345015],"type":"Point"},"properties":{"name":"Bat Hefer","kind":"village","population":5209},"type":"Feature"},{"geometry":{"coordinates":[34.9828907,32.3218886],"type":"Point"},"properties":{"name":"Be'erotaim","kind":"village","population":1179},"type":"Feature"},{"geometry":{"coordinates":[34.9629135,32.3264732],"type":"Point"},"properties":{"name":"Burgata","kind":"village","population":1153},"type":"Feature"},{"geometry":{"coordinates":[34.9485815,32.3321351],"type":"Point"},"properties":{"name":"Haniel","kind":"village","population":916},"type":"Feature"},{"geometry":{"coordinates":[34.9954017,32.3506691],"type":"Point"},"properties":{"name":"Gan Yoshiah","kind":"village","population":1040},"type":"Feature"},{"geometry":{"coordinates":[35.0103906,32.3958732],"type":"Point"},"properties":{"name":"Lehavot Chaviva","kind":"village","population":1061},"type":"Feature"},{"geometry":{"coordinates":[34.9938162,32.4051186],"type":"Point"},"properties":{"name":"Sde Itzchak","kind":"village","population":730},"type":"Feature"},{"geometry":{"coordinates":[35.0428311,32.4197144],"type":"Point"},"properties":{"name":"Baqa al Gharbiyya","kind":"town","population":31397},"type":"Feature"},{"geometry":{"coordinates":[34.8907527,32.0331756],"type":"Point"},"properties":{"name":"Yehud Monosson","kind":"town","population":25000},"type":"Feature"},{"geometry":{"coordinates":[34.8773186,32.040345],"type":"Point"},"properties":{"name":"Ganay Yehuda","kind":"village","population":800},"type":"Feature"},{"geometry":{"coordinates":[34.8594303,32.0591691],"type":"Point"},"properties":{"name":"Kiryat Ono","kind":"town","population":43241},"type":"Feature"},{"geometry":{"coordinates":[34.8717347,32.3502322],"type":"Point"},"properties":{"name":"Avihayil","kind":"village","population":1391},"type":"Feature"},{"geometry":{"coordinates":[34.8723281,32.3602692],"type":"Point"},"properties":{"name":"Bat Hen","kind":"village","population":407},"type":"Feature"},{"geometry":{"coordinates":[34.8586835,32.3613476],"type":"Point"},"properties":{"name":"Tzukei Yam","kind":"village","population":296},"type":"Feature"},{"geometry":{"coordinates":[34.8567151,32.3543061],"type":"Point"},"properties":{"name":"Shoshanat HaAmakim","kind":"village","population":489},"type":"Feature"},{"geometry":{"coordinates":[34.8741357,32.3758477],"type":"Point"},"properties":{"name":"Beit Herut","kind":"village","population":800},"type":"Feature"},{"geometry":{"coordinates":[34.8755505,32.3856586],"type":"Point"},"properties":{"name":"Hofit","kind":"village","population":815},"type":"Feature"},{"geometry":{"coordinates":[35.3143141,33.084763],"type":"Point"},"properties":{"name":"Shetula","kind":"village","population":311},"type":"Feature"},{"geometry":{"coordinates":[34.4139745,31.24831],"type":"Point"},"properties":{"name":"Amioz","kind":"village","population":218},"type":"Feature"},{"geometry":{"coordinates":[35.5520809,32.6206515],"type":"Point"},"properties":{"name":"Gesher","kind":"village","population":462},"type":"Feature"},{"geometry":{"coordinates":[35.5641252,33.0458869],"type":"Point"},"properties":{"name":"Sde Eliezer","kind":"village","population":891},"type":"Feature"},{"geometry":{"coordinates":[35.5747095,32.6999198],"type":"Point"},"properties":{"name":"Deganya Bet","kind":"village","population":704},"type":"Feature"},{"geometry":{"coordinates":[35.1013589,32.7509558],"type":"Point"},"properties":{"name":"Rekhasim","kind":"town","population":14198},"type":"Feature"},{"geometry":{"coordinates":[35.238324,32.751099],"type":"Point"},"properties":{"name":"HaSolelim","kind":"village","population":983},"type":"Feature"},{"geometry":{"coordinates":[35.003597,32.5106111],"type":"Point"},"properties":{"name":"Allone Yizhaq","kind":"village","population":304},"type":"Feature"},{"geometry":{"coordinates":[35.1131062,32.7230505],"type":"Point"},"properties":{"name":"Shaar HaAmaqim","kind":"village","population":782},"type":"Feature"},{"geometry":{"coordinates":[35.2715538,32.8372367],"type":"Point"},"properties":{"name":"Yodfat","kind":"village","population":964},"type":"Feature"},{"geometry":{"coordinates":[34.7055051,31.6528819],"type":"Point"},"properties":{"name":"Yad Natan","kind":"village","population":631},"type":"Feature"},{"geometry":{"coordinates":[34.7890968,31.5669098],"type":"Point"},"properties":{"name":"Noam","kind":"village","population":342},"type":"Feature"},{"geometry":{"coordinates":[34.923101,32.1918302],"type":"Point"},"properties":{"name":"Tsofit","kind":"village","population":1318},"type":"Feature"},{"geometry":{"coordinates":[35.4579027,32.9574173],"type":"Point"},"properties":{"name":"Kfar Shammay","kind":"village","population":565},"type":"Feature"},{"geometry":{"coordinates":[34.5775724,31.4485605],"type":"Point"},"properties":{"name":"Tkuma","kind":"village","population":724},"type":"Feature"},{"geometry":{"coordinates":[34.9815088,31.7825667],"type":"Point"},"properties":{"name":"Tarum","kind":"village","population":966},"type":"Feature"},{"geometry":{"coordinates":[35.3141186,33.0059947],"type":"Point"},"properties":{"name":"Tzuriel","kind":"village","population":405},"type":"Feature"},{"geometry":{"coordinates":[34.7925947,30.8737395],"type":"Point"},"properties":{"name":"Sde Boker","kind":"village","population":470},"type":"Feature"},{"geometry":{"coordinates":[35.5531168,33.1022971],"type":"Point"},"properties":{"name":"Ramot Naftali","kind":"village","population":551},"type":"Feature"},{"geometry":{"coordinates":[35.3612558,32.9113891],"type":"Point"},"properties":{"name":"Kammon","kind":"village","population":1412},"type":"Feature"},{"geometry":{"coordinates":[35.0670512,32.6327376],"type":"Point"},"properties":{"name":"Elyakim","kind":"village","population":969},"type":"Feature"},{"geometry":{"coordinates":[34.612047,31.3277011],"type":"Point"},"properties":{"name":"Pduyim","kind":"village","population":522},"type":"Feature"},{"geometry":{"coordinates":[34.8828125,31.8311138],"type":"Point"},"properties":{"name":"Hulda","kind":"village","population":1187},"type":"Feature"},{"geometry":{"coordinates":[35.1550959,32.5429292],"type":"Point"},"properties":{"name":"Musmus","kind":"village","population":800},"type":"Feature"},{"geometry":{"coordinates":[35.1716603,32.958648],"type":"Point"},"properties":{"name":"Abu Sinan","kind":"village","population":14687},"type":"Feature"},{"geometry":{"coordinates":[34.9480485,32.6482373],"type":"Point"},"properties":{"name":"Tzrufa","kind":"village","population":1154},"type":"Feature"},{"geometry":{"coordinates":[34.8760954,32.0604256],"type":"Point"},"properties":{"name":"Ganei Tikva","kind":"village","population":23646},"type":"Feature"},{"geometry":{"coordinates":[34.8629629,32.3775275],"type":"Point"},"properties":{"name":"Beit Yanai","kind":"village","population":378},"type":"Feature"},{"geometry":{"coordinates":[35.2452983,32.5696288],"type":"Point"},"properties":{"name":"Nir Yafeh","kind":"village","population":724},"type":"Feature"},{"geometry":{"coordinates":[34.9447916,31.8719461],"type":"Point"},"properties":{"name":"Mishmar Ayyalon","kind":"village","population":580},"type":"Feature"},{"geometry":{"coordinates":[34.5454341,31.4500142],"type":"Point"},"properties":{"name":"Shuva","kind":"village","population":744},"type":"Feature"},{"geometry":{"coordinates":[34.8203144,31.8774823],"type":"Point"},"properties":{"name":"Kfar Bilu","kind":"village","population":1259},"type":"Feature"},{"geometry":{"coordinates":[34.891423,31.9753923],"type":"Point"},"properties":{"name":"Zeitan","kind":"village","population":1015},"type":"Feature"},{"geometry":{"coordinates":[35.4737461,32.8984224],"type":"Point"},"properties":{"name":"Kadarim","kind":"village","population":308},"type":"Feature"},{"geometry":{"coordinates":[34.8469023,32.1656255],"type":"Point"},"properties":{"name":"Herzliya","kind":"town","population":25000},"type":"Feature"},{"geometry":{"coordinates":[34.9257315,32.3875165],"type":"Point"},"properties":{"name":"Hogla","kind":"village","population":864},"type":"Feature"},{"geometry":{"coordinates":[35.3081153,33.0476686],"type":"Point"},"properties":{"name":"Fassuta","kind":"village","population":3255},"type":"Feature"},{"geometry":{"coordinates":[34.6344922,31.3342804],"type":"Point"},"properties":{"name":"Bitha","kind":"village","population":790},"type":"Feature"},{"geometry":{"coordinates":[34.9327461,31.8041263],"type":"Point"},"properties":{"name":"Tslafon","kind":"village","population":1095},"type":"Feature"},{"geometry":{"coordinates":[34.5363846,31.4308052],"type":"Point"},"properties":{"name":"Kfar Maymon","kind":"village","population":438},"type":"Feature"},{"geometry":{"coordinates":[35.0788877,31.8092425],"type":"Point"},"properties":{"name":"Neve Ilan","kind":"village","population":800},"type":"Feature"},{"geometry":{"coordinates":[35.0177211,31.6811888],"type":"Point"},"properties":{"name":"Aviezer","kind":"village","population":897},"type":"Feature"},{"geometry":{"coordinates":[35.1479211,32.9943175],"type":"Point"},"properties":{"name":"Sheikh Dannun","kind":"village","population":800},"type":"Feature"},{"geometry":{"coordinates":[34.7649543,31.592477],"type":"Point"},"properties":{"name":"Uza","kind":"village","population":393},"type":"Feature"},{"geometry":{"coordinates":[35.570735,32.9886405],"type":"Point"},"properties":{"name":"Mahanayim","kind":"village","population":798},"type":"Feature"},{"geometry":{"coordinates":[34.7795177,31.7429158],"type":"Point"},"properties":{"name":"Yinon","kind":"village","population":1222},"type":"Feature"},{"geometry":{"coordinates":[34.9984491,32.4639095],"type":"Point"},"properties":{"name":"Gan HaShomron","kind":"village","population":861},"type":"Feature"},{"geometry":{"coordinates":[34.9542319,32.5988242],"type":"Point"},"properties":{"name":"Fureidis","kind":"village","population":13722},"type":"Feature"},{"geometry":{"coordinates":[35.006394,32.4239237],"type":"Point"},"properties":{"name":"Maor","kind":"village","population":1479},"type":"Feature"},{"geometry":{"coordinates":[34.6827493,31.6623288],"type":"Point"},"properties":{"name":"Negba","kind":"village","population":960},"type":"Feature"},{"geometry":{"coordinates":[34.8026633,31.6101976],"type":"Point"},"properties":{"name":"Sde Moshe","kind":"village","population":800},"type":"Feature"},{"geometry":{"coordinates":[35.1652427,32.7024925],"type":"Point"},"properties":{"name":"Ramat Yishai","kind":"village","population":8120},"type":"Feature"},{"geometry":{"coordinates":[35.556773,32.4581631],"type":"Point"},"properties":{"name":"Kfar Ruppin","kind":"village","population":546},"type":"Feature"},{"geometry":{"coordinates":[34.9270405,31.8294277],"type":"Point"},"properties":{"name":"Bkoa","kind":"village","population":875},"type":"Feature"},{"geometry":{"coordinates":[34.7066969,31.4971107],"type":"Point"},"properties":{"name":"Ruhama","kind":"village","population":761},"type":"Feature"},{"geometry":{"coordinates":[34.9683081,32.1531458],"type":"Point"},"properties":{"name":"Yarhiv","kind":"village","population":1087},"type":"Feature"},{"geometry":{"coordinates":[34.400815,31.3095982],"type":"Point"},"properties":{"name":"Nir Oz","kind":"village","population":380},"type":"Feature"},{"geometry":{"coordinates":[34.7766986,31.6565157],"type":"Point"},"properties":{"name":"Menuha","kind":"village","population":668},"type":"Feature"},{"geometry":{"coordinates":[35.3505185,32.6479447],"type":"Point"},"properties":{"name":"Dovrat","kind":"village","population":563},"type":"Feature"},{"geometry":{"coordinates":[34.6100744,31.5332929],"type":"Point"},"properties":{"name":"Ibbim","kind":"village","population":774},"type":"Feature"},{"geometry":{"coordinates":[34.908056,31.935556],"type":"Point"},"properties":{"name":"Ahisamakh","kind":"village","population":1413},"type":"Feature"},{"geometry":{"coordinates":[34.9206369,31.7214757],"type":"Point"},"properties":{"name":"Sdot Micha","kind":"village","population":382},"type":"Feature"},{"geometry":{"coordinates":[34.9328059,31.8891357],"type":"Point"},"properties":{"name":"Kfar Shmuel","kind":"village","population":971},"type":"Feature"},{"geometry":{"coordinates":[34.5333225,31.4833351],"type":"Point"},"properties":{"name":"Kfar Azza","kind":"village","population":787},"type":"Feature"},{"geometry":{"coordinates":[35.3306239,32.8894552],"type":"Point"},"properties":{"name":"Ma'alle Zviya","kind":"village","population":800},"type":"Feature"},{"geometry":{"coordinates":[34.7210185,31.7730925],"type":"Point"},"properties":{"name":"Hazor Ashdod","kind":"village","population":800},"type":"Feature"},{"geometry":{"coordinates":[35.406944,32.8869441],"type":"Point"},"properties":{"name":"Maghar","kind":"village","population":23998},"type":"Feature"},{"geometry":{"coordinates":[35.4567497,32.5027374],"type":"Point"},"properties":{"name":"Nir David","kind":"village","population":800},"type":"Feature"},{"geometry":{"coordinates":[35.1419938,31.7511296],"type":"Point"},"properties":{"name":"Aminadav","kind":"village","population":1119},"type":"Feature"},{"geometry":{"coordinates":[35.393461,32.921571],"type":"Point"},"properties":{"name":"Moran","kind":"village","population":498},"type":"Feature"},{"geometry":{"coordinates":[35.0300253,32.475134],"type":"Point"},"properties":{"name":"Barkai","kind":"village","population":560},"type":"Feature"},{"geometry":{"coordinates":[35.2292923,33.0095478],"type":"Point"},"properties":{"name":"Ein Yaaqov","kind":"village","population":1226},"type":"Feature"},{"geometry":{"coordinates":[35.3358268,32.8486259],"type":"Point"},"properties":{"name":"Arraba","kind":"city","population":27115},"type":"Feature"},{"geometry":{"coordinates":[34.6398404,31.6756487],"type":"Point"},"properties":{"name":"Hodiyya","kind":"village","population":800},"type":"Feature"},{"geometry":{"coordinates":[35.0219504,32.4580225],"type":"Point"},"properties":{"name":"Givat Haviva","kind":"village","population":800},"type":"Feature"},{"geometry":{"coordinates":[35.2463979,30.7982828],"type":"Point"},"properties":{"name":"Ein Hatseva","kind":"village","population":800},"type":"Feature"},{"geometry":{"coordinates":[34.6547505,31.4492727],"type":"Point"},"properties":{"name":"Mabbuim","kind":"village","population":1238},"type":"Feature"},{"geometry":{"coordinates":[35.259032,32.5272379],"type":"Point"},"properties":{"name":"Ram On","kind":"village","population":800},"type":"Feature"},{"geometry":{"coordinates":[35.2204512,32.9967146],"type":"Point"},"properties":{"name":"Yehiam","kind":"village","population":778},"type":"Feature"},{"geometry":{"coordinates":[35.547389,32.9480271],"type":"Point"},"properties":{"name":"Elifelet","kind":"village","population":728},"type":"Feature"},{"geometry":{"coordinates":[34.7818064,32.0852997],"type":"Point"},"properties":{"name":"Tel Aviv","kind":"city","population":80000},"type":"Feature"},{"geometry":{"coordinates":[34.6846417,31.5766262],"type":"Point"},"properties":{"name":"Sde David","kind":"village","population":649},"type":"Feature"},{"geometry":{"coordinates":[34.5991766,31.5067391],"type":"Point"},"properties":{"name":"Gevim","kind":"village","population":619},"type":"Feature"},{"geometry":{"coordinates":[35.0996706,32.9779642],"type":"Point"},"properties":{"name":"Regba","kind":"village","population":1115},"type":"Feature"},{"geometry":{"coordinates":[34.9005646,32.3490842],"type":"Point"},"properties":{"name":"Hadar Am","kind":"village","population":686},"type":"Feature"},{"geometry":{"coordinates":[34.400966,31.3513501],"type":"Point"},"properties":{"name":"Ein HaShlosha","kind":"village","population":353},"type":"Feature"},{"geometry":{"coordinates":[35.019131,32.3510073],"type":"Point"},"properties":{"name":"Bahan","kind":"village","population":1147},"type":"Feature"},{"geometry":{"coordinates":[35.2620596,32.9592382],"type":"Point"},"properties":{"name":"Lappidot","kind":"village","population":126},"type":"Feature"},{"geometry":{"coordinates":[35.2183447,31.7387105],"type":"Point"},"properties":{"name":"Ramat Rahel","kind":"village","population":550},"type":"Feature"},{"geometry":{"coordinates":[35.5149917,32.4405328],"type":"Point"},"properties":{"name":"Sde Eliyahu","kind":"village","population":703},"type":"Feature"},{"geometry":{"coordinates":[34.7281236,31.8168499],"type":"Point"},"properties":{"name":"Bet Rabban - Givat Washington","kind":"village","population":800},"type":"Feature"},{"geometry":{"coordinates":[34.6491564,31.5597901],"type":"Point"},"properties":{"name":"Beror Hayil","kind":"village","population":1063},"type":"Feature"},{"geometry":{"coordinates":[34.8821097,31.8580777],"type":"Point"},"properties":{"name":"Pedaya","kind":"village","population":830},"type":"Feature"},{"geometry":{"coordinates":[34.7605995,31.7891954],"type":"Point"},"properties":{"name":"Bnei Aish","kind":"village","population":6881},"type":"Feature"},{"geometry":{"coordinates":[35.0949392,32.6119762],"type":"Point"},"properties":{"name":"Ramat HaShofet","kind":"village","population":1186},"type":"Feature"},{"geometry":{"coordinates":[34.9248732,32.4079533],"type":"Point"},"properties":{"name":"Elyakhin","kind":"village","population":3462},"type":"Feature"},{"geometry":{"coordinates":[35.0948306,31.7156945],"type":"Point"},"properties":{"name":"Tzur Hadassa","kind":"village","population":12142},"type":"Feature"},{"geometry":{"coordinates":[35.0375429,32.3988067],"type":"Point"},"properties":{"name":"Jatt","kind":"village","population":800},"type":"Feature"},{"geometry":{"coordinates":[35.3277836,32.7819472],"type":"Point"},"properties":{"name":"Beit Rimmon","kind":"village","population":982},"type":"Feature"},{"geometry":{"coordinates":[35.0790886,31.7991564],"type":"Point"},"properties":{"name":"Shoeva","kind":"village","population":597},"type":"Feature"},{"geometry":{"coordinates":[34.8862877,31.8675842],"type":"Point"},"properties":{"name":"Petahia","kind":"village","population":884},"type":"Feature"},{"geometry":{"coordinates":[35.0302878,32.368364],"type":"Point"},"properties":{"name":"Yamma","kind":"village","population":800},"type":"Feature"},{"geometry":{"coordinates":[34.7385694,31.819884],"type":"Point"},"properties":{"name":"Misgav Dov","kind":"village","population":736},"type":"Feature"},{"geometry":{"coordinates":[34.9400745,32.5683241],"type":"Point"},"properties":{"name":"Ma'ayan Tzvi","kind":"village","population":750},"type":"Feature"},{"geometry":{"coordinates":[35.312492,32.723612],"type":"Point"},"properties":{"name":"Reineh","kind":"village","population":19397},"type":"Feature"},{"geometry":{"coordinates":[34.9471855,31.8624687],"type":"Point"},"properties":{"name":"Kfar Bin Nun","kind":"village","population":800},"type":"Feature"},{"geometry":{"coordinates":[35.1890555,32.7345558],"type":"Point"},"properties":{"name":"Bethlehem of Galilee","kind":"village","population":824},"type":"Feature"},{"geometry":{"coordinates":[35.5987945,32.683069],"type":"Point"},"properties":{"name":"Massada","kind":"village","population":388},"type":"Feature"},{"geometry":{"coordinates":[35.39499,33.026907],"type":"Point"},"properties":{"name":"Sasa","kind":"village","population":396},"type":"Feature"},{"geometry":{"coordinates":[35.5645775,32.5644389],"type":"Point"},"properties":{"name":"Yardena","kind":"village","population":384},"type":"Feature"},{"geometry":{"coordinates":[34.6350858,31.3706542],"type":"Point"},"properties":{"name":"Brosh","kind":"village","population":594},"type":"Feature"},{"geometry":{"coordinates":[35.1461716,32.5356317],"type":"Point"},"properties":{"name":"Ein Ibrahim","kind":"village","population":800},"type":"Feature"},{"geometry":{"coordinates":[34.7002742,30.9638905],"type":"Point"},"properties":{"name":"Ashalim","kind":"village","population":652},"type":"Feature"},{"geometry":{"coordinates":[35.6392634,33.2303715],"type":"Point"},"properties":{"name":"Dafna","kind":"village","population":1073},"type":"Feature"},{"geometry":{"coordinates":[35.5748582,32.7084791],"type":"Point"},"properties":{"name":"Deganya Alef","kind":"village","population":525},"type":"Feature"},{"geometry":{"coordinates":[35.3245126,32.7401998],"type":"Point"},"properties":{"name":"Mashhad","kind":"town","population":8771},"type":"Feature"},{"geometry":{"coordinates":[35.4891906,33.0166712],"type":"Point"},"properties":{"name":"Dalton","kind":"village","population":912},"type":"Feature"},{"geometry":{"coordinates":[34.7392791,31.7950527],"type":"Point"},"properties":{"name":"Bitzaron","kind":"village","population":1231},"type":"Feature"},{"geometry":{"coordinates":[35.5523146,32.5588132],"type":"Point"},"properties":{"name":"Beit Yosef","kind":"village","population":493},"type":"Feature"},{"geometry":{"coordinates":[35.2238731,32.6771965],"type":"Point"},"properties":{"name":"Yifat","kind":"village","population":1227},"type":"Feature"},{"geometry":{"coordinates":[34.7150744,31.24041],"type":"Point"},"properties":{"name":"Hatzerim","kind":"village","population":864},"type":"Feature"},{"geometry":{"coordinates":[34.9339746,32.2457804],"type":"Point"},"properties":{"name":"Kfar Hess","kind":"village","population":1550},"type":"Feature"},{"geometry":{"coordinates":[35.1434101,31.7937847],"type":"Point"},"properties":{"name":"Maoz Ziyyon","kind":"village","population":800},"type":"Feature"},{"geometry":{"coordinates":[34.9017297,32.151417],"type":"Point"},"properties":{"name":"Ganei Am","kind":"village","population":231},"type":"Feature"},{"geometry":{"coordinates":[35.2579504,32.9225771],"type":"Point"},"properties":{"name":"Majd al Kurum","kind":"village","population":15777},"type":"Feature"},{"geometry":{"coordinates":[34.802593,32.0282087],"type":"Point"},"properties":{"name":"Azor","kind":"village","population":13593},"type":"Feature"},{"geometry":{"coordinates":[34.421866,30.8863231],"type":"Point"},"properties":{"name":"Nitsana","kind":"village","population":800},"type":"Feature"},{"geometry":{"coordinates":[35.4204202,32.6878053],"type":"Point"},"properties":{"name":"Kfar Tavor","kind":"village","population":4410},"type":"Feature"},{"geometry":{"coordinates":[34.9933907,32.5325097],"type":"Point"},"properties":{"name":"Aviel","kind":"village","population":816},"type":"Feature"},{"geometry":{"coordinates":[35.2253075,32.7038078],"type":"Point"},"properties":{"name":"Timrat","kind":"village","population":1291},"type":"Feature"},{"geometry":{"coordinates":[34.645993,31.506606],"type":"Point"},"properties":{"name":"Dorot","kind":"village","population":915},"type":"Feature"},{"geometry":{"coordinates":[35.603248,32.9139417],"type":"Point"},"properties":{"name":"Almagor","kind":"village","population":425},"type":"Feature"},{"geometry":{"coordinates":[34.7410254,31.8059239],"type":"Point"},"properties":{"name":"Neve Mivtah","kind":"village","population":673},"type":"Feature"},{"geometry":{"coordinates":[35.0039498,31.7665744],"type":"Point"},"properties":{"name":"Naham","kind":"village","population":532},"type":"Feature"},{"geometry":{"coordinates":[34.8352311,31.7309768],"type":"Point"},"properties":{"name":"Kfar Menachem","kind":"village","population":1371},"type":"Feature"},{"geometry":{"coordinates":[35.1109814,33.0394679],"type":"Point"},"properties":{"name":"Gesher HaZiv","kind":"village","population":1631},"type":"Feature"},{"geometry":{"coordinates":[35.3638836,31.2013827],"type":"Point"},"properties":{"name":"Ein Bokek","kind":"village","population":800},"type":"Feature"},{"geometry":{"coordinates":[35.4074724,32.754961],"type":"Point"},"properties":{"name":"Ilaniya","kind":"village","population":800},"type":"Feature"},{"geometry":{"coordinates":[35.1213847,32.7925038],"type":"Point"},"properties":{"name":"Ramat Yahanan","kind":"village","population":1068},"type":"Feature"},{"geometry":{"coordinates":[35.1252694,31.8028567],"type":"Point"},"properties":{"name":"Beit Neqofa","kind":"village","population":763},"type":"Feature"},{"geometry":{"coordinates":[35.4458835,33.0243744],"type":"Point"},"properties":{"name":"Gish (Gush Halav)","kind":"village","population":800},"type":"Feature"},{"geometry":{"coordinates":[34.5771198,31.6221558],"type":"Point"},"properties":{"name":"Mavkiim","kind":"village","population":517},"type":"Feature"},{"geometry":{"coordinates":[34.9862175,32.3317108],"type":"Point"},"properties":{"name":"Olesh","kind":"village","population":1192},"type":"Feature"},{"geometry":{"coordinates":[34.7976591,31.8150988],"type":"Point"},"properties":{"name":"Kidron","kind":"village","population":1626},"type":"Feature"},{"geometry":{"coordinates":[35.0504995,32.5029914],"type":"Point"},"properties":{"name":"Kfar Kara","kind":"town","population":20018},"type":"Feature"},{"geometry":{"coordinates":[34.9823355,31.6885598],"type":"Point"},"properties":{"name":"Netiv Ha'Lamed-He","kind":"village","population":701},"type":"Feature"},{"geometry":{"coordinates":[34.9132199,32.5375618],"type":"Point"},"properties":{"name":"Jisr az Zarqa","kind":"village","population":800},"type":"Feature"},{"geometry":{"coordinates":[34.7435754,31.7109457],"type":"Point"},"properties":{"name":"Avigdor","kind":"village","population":815},"type":"Feature"},{"geometry":{"coordinates":[35.25833,33.0280627],"type":"Point"},"properties":{"name":"Miilya","kind":"village","population":3281},"type":"Feature"},{"geometry":{"coordinates":[35.6462866,33.1238763],"type":"Point"},"properties":{"name":"Gonen","kind":"village","population":372},"type":"Feature"},{"geometry":{"coordinates":[35.5328566,32.7938522],"type":"Point"},"properties":{"name":"Tiberias","kind":"town","population":48472},"type":"Feature"},{"geometry":{"coordinates":[35.4973022,32.4967519],"type":"Point"},"properties":{"name":"Beit Shean","kind":"town","population":19073},"type":"Feature"},{"geometry":{"coordinates":[34.9914108,32.3873272],"type":"Point"},"properties":{"name":"Ahituv","kind":"village","population":1105},"type":"Feature"},{"geometry":{"coordinates":[35.2413237,32.6765744],"type":"Point"},"properties":{"name":"Migdal HaEmeq","kind":"town","population":27088},"type":"Feature"},{"geometry":{"coordinates":[34.8153077,31.7730474],"type":"Point"},"properties":{"name":"Revadim","kind":"village","population":830},"type":"Feature"},{"geometry":{"coordinates":[34.5621232,31.5026787],"type":"Point"},"properties":{"name":"Mefallesim","kind":"village","population":1057},"type":"Feature"},{"geometry":{"coordinates":[35.3279785,32.9569673],"type":"Point"},"properties":{"name":"Harashim","kind":"village","population":373},"type":"Feature"},{"geometry":{"coordinates":[34.7200879,31.6940539],"type":"Point"},"properties":{"name":"Ein Zurim","kind":"village","population":879},"type":"Feature"},{"geometry":{"coordinates":[34.5338387,31.2036632],"type":"Point"},"properties":{"name":"Tseelim","kind":"village","population":495},"type":"Feature"},{"geometry":{"coordinates":[35.1794373,33.0479451],"type":"Point"},"properties":{"name":"Avdon","kind":"village","population":674},"type":"Feature"},{"geometry":{"coordinates":[35.2216911,32.7756653],"type":"Point"},"properties":{"name":"Bir al-Maksur","kind":"village","population":800},"type":"Feature"},{"geometry":{"coordinates":[34.7861244,31.0032681],"type":"Point"},"properties":{"name":"Mashabei Sadeh","kind":"village","population":468},"type":"Feature"},{"geometry":{"coordinates":[34.9230461,32.6075668],"type":"Point"},"properties":{"name":"Dor","kind":"village","population":465},"type":"Feature"},{"geometry":{"coordinates":[35.1733471,33.0874108],"type":"Point"},"properties":{"name":"Hanita","kind":"village","population":746},"type":"Feature"},{"geometry":{"coordinates":[34.9211469,32.0980886],"type":"Point"},"properties":{"name":"Givat HaShlosha","kind":"village","population":922},"type":"Feature"},{"geometry":{"coordinates":[35.0853937,32.6290135],"type":"Point"},"properties":{"name":"Ein HaEmek","kind":"village","population":847},"type":"Feature"},{"geometry":{"coordinates":[34.9012083,32.3920841],"type":"Point"},"properties":{"name":"Geuley Teiman","kind":"village","population":357},"type":"Feature"},{"geometry":{"coordinates":[35.620776,33.1787718],"type":"Point"},"properties":{"name":"Amir","kind":"village","population":622},"type":"Feature"},{"geometry":{"coordinates":[34.8806084,31.9870408],"type":"Point"},"properties":{"name":"Yagel","kind":"village","population":905},"type":"Feature"},{"geometry":{"coordinates":[34.7071255,31.6951844],"type":"Point"},"properties":{"name":"Merkaz Shapira","kind":"village","population":2801},"type":"Feature"},{"geometry":{"coordinates":[34.8884857,31.9489012],"type":"Point"},"properties":{"name":"Lod","kind":"town","population":85351},"type":"Feature"},{"geometry":{"coordinates":[35.394977,32.9067724],"type":"Point"},"properties":{"name":"Hazon","kind":"village","population":293},"type":"Feature"},{"geometry":{"coordinates":[35.4042528,32.6343499],"type":"Point"},"properties":{"name":"Tamra","kind":"village","population":35834},"type":"Feature"},{"geometry":{"coordinates":[34.9115676,31.8904994],"type":"Point"},"properties":{"name":"Azarya","kind":"village","population":1269},"type":"Feature"},{"geometry":{"coordinates":[35.0817793,32.9505232],"type":"Point"},"properties":{"name":"Bustan HaGalil","kind":"village","population":1328},"type":"Feature"},{"geometry":{"coordinates":[34.7561791,31.8310864],"type":"Point"},"properties":{"name":"Kfar Mordechai","kind":"village","population":639},"type":"Feature"},{"geometry":{"coordinates":[35.5944243,32.9663198],"type":"Point"},"properties":{"name":"Tuba Zangariya","kind":"village","population":800},"type":"Feature"},{"geometry":{"coordinates":[34.9686245,31.7627391],"type":"Point"},"properties":{"name":"Tzora","kind":"village","population":936},"type":"Feature"},{"geometry":{"coordinates":[35.2781186,32.7443077],"type":"Point"},"properties":{"name":"Zippori","kind":"village","population":1030},"type":"Feature"},{"geometry":{"coordinates":[34.8641079,32.2275023],"type":"Point"},"properties":{"name":"Harutzim","kind":"village","population":916},"type":"Feature"},{"geometry":{"coordinates":[34.7297701,31.6619651],"type":"Point"},"properties":{"name":"Komemiyut","kind":"village","population":606},"type":"Feature"},{"geometry":{"coordinates":[34.9139386,31.9623127],"type":"Point"},"properties":{"name":"Ginaton","kind":"village","population":867},"type":"Feature"},{"geometry":{"coordinates":[35.2725342,32.9972507],"type":"Point"},"properties":{"name":"Kfar Vradim","kind":"village","population":5562},"type":"Feature"},{"geometry":{"coordinates":[35.4669505,32.7254465],"type":"Point"},"properties":{"name":"Sharona","kind":"village","population":568},"type":"Feature"},{"geometry":{"coordinates":[34.6720813,31.5635578],"type":"Point"},"properties":{"name":"Tlamim","kind":"village","population":900},"type":"Feature"},{"geometry":{"coordinates":[35.0756378,32.9281731],"type":"Point"},"properties":{"name":"Acre","kind":"city","population":51420},"type":"Feature"},{"geometry":{"coordinates":[34.5602722,31.3273849],"type":"Point"},"properties":{"name":"Patish","kind":"village","population":1014},"type":"Feature"},{"geometry":{"coordinates":[34.6898673,31.7023455],"type":"Point"},"properties":{"name":"Masuot Yitzhak","kind":"village","population":705},"type":"Feature"},{"geometry":{"coordinates":[34.8693,32.3660377],"type":"Point"},"properties":{"name":"Bitan Aharon","kind":"village","population":167},"type":"Feature"},{"geometry":{"coordinates":[35.2886449,33.0996431],"type":"Point"},"properties":{"name":"Zarit","kind":"village","population":800},"type":"Feature"},{"geometry":{"coordinates":[34.931667,32.043333],"type":"Point"},"properties":{"name":"Rinatya","kind":"village","population":1197},"type":"Feature"},{"geometry":{"coordinates":[35.4727211,32.4492455],"type":"Point"},"properties":{"name":"Revaya","kind":"village","population":459},"type":"Feature"},{"geometry":{"coordinates":[35.005556,32.730556],"type":"Point"},"properties":{"name":"Beit Oren","kind":"village","population":594},"type":"Feature"},{"geometry":{"coordinates":[34.5983178,31.3974042],"type":"Point"},"properties":{"name":"Maagalim","kind":"village","population":2075},"type":"Feature"},{"geometry":{"coordinates":[34.764843,31.8846855],"type":"Point"},"properties":{"name":"Ge'alya","kind":"village","population":924},"type":"Feature"},{"geometry":{"coordinates":[34.9312543,32.3535046],"type":"Point"},"properties":{"name":"Beit HaLevi","kind":"village","population":834},"type":"Feature"},{"geometry":{"coordinates":[35.6069281,33.2083012],"type":"Point"},"properties":{"name":"Beit Hillel","kind":"village","population":807},"type":"Feature"},{"geometry":{"coordinates":[34.6237776,31.6576442],"type":"Point"},"properties":{"name":"Mashen","kind":"village","population":1043},"type":"Feature"},{"geometry":{"coordinates":[34.9118719,32.0235637],"type":"Point"},"properties":{"name":"Bnei Atarot","kind":"village","population":934},"type":"Feature"},{"geometry":{"coordinates":[35.2369919,33.0563927],"type":"Point"},"properties":{"name":"Goren","kind":"village","population":424},"type":"Feature"},{"geometry":{"coordinates":[34.8030534,31.8460836],"type":"Point"},"properties":{"name":"Beit Elazari","kind":"village","population":1550},"type":"Feature"},{"geometry":{"coordinates":[34.7622872,31.4475406],"type":"Point"},"properties":{"name":"Beit Kama","kind":"village","population":1426},"type":"Feature"},{"geometry":{"coordinates":[34.7495578,31.886691],"type":"Point"},"properties":{"name":"Kfar HaNagid","kind":"village","population":1226},"type":"Feature"},{"geometry":{"coordinates":[35.1446939,32.7199093],"type":"Point"},"properties":{"name":"Alonim","kind":"village","population":552},"type":"Feature"},{"geometry":{"coordinates":[35.1093238,33.0293646],"type":"Point"},"properties":{"name":"Saar","kind":"village","population":934},"type":"Feature"},{"geometry":{"coordinates":[34.921944,31.9522788],"type":"Point"},"properties":{"name":"Ben Shemen","kind":"village","population":800},"type":"Feature"},{"geometry":{"coordinates":[35.1149003,32.7910628],"type":"Point"},"properties":{"name":"Kfar HaMaccabi","kind":"village","population":417},"type":"Feature"},{"geometry":{"coordinates":[35.6530878,33.2400913],"type":"Point"},"properties":{"name":"Dan","kind":"village","population":799},"type":"Feature"},{"geometry":{"coordinates":[35.1845881,32.5478943],"type":"Point"},"properties":{"name":"Zalafa","kind":"village","population":800},"type":"Feature"},{"geometry":{"coordinates":[35.1162744,31.7901732],"type":"Point"},"properties":{"name":"Ein Rafa","kind":"village","population":1297},"type":"Feature"},{"geometry":{"coordinates":[35.1930067,32.6460182],"type":"Point"},"properties":{"name":"Kfar Baruch","kind":"village","population":709},"type":"Feature"},{"geometry":{"coordinates":[35.1542803,32.5529072],"type":"Point"},"properties":{"name":"Musheirifa","kind":"village","population":800},"type":"Feature"},{"geometry":{"coordinates":[34.944079,31.7097914],"type":"Point"},"properties":{"name":"Zecharya","kind":"village","population":1125},"type":"Feature"},{"geometry":{"coordinates":[35.3421983,32.9419893],"type":"Point"},"properties":{"name":"Sajur","kind":"village","population":800},"type":"Feature"},{"geometry":{"coordinates":[35.3159604,32.6024516],"type":"Point"},"properties":{"name":"Moshav Merhavya","kind":"village","population":800},"type":"Feature"},{"geometry":{"coordinates":[35.3666613,32.8625037],"type":"Point"},"properties":{"name":"Deir Hanna","kind":"village","population":800},"type":"Feature"},{"geometry":{"coordinates":[35.369171,32.8457853],"type":"Point"},"properties":{"name":"Hararit","kind":"village","population":644},"type":"Feature"},{"geometry":{"coordinates":[35.5811432,32.6581629],"type":"Point"},"properties":{"name":"Ashdot Yaakov Ihud","kind":"village","population":800},"type":"Feature"},{"geometry":{"coordinates":[35.1131894,32.7607812],"type":"Point"},"properties":{"name":"Ibtin","kind":"village","population":800},"type":"Feature"},{"geometry":{"coordinates":[35.4038394,32.7580406],"type":"Point"},"properties":{"name":"Havat HaShomer","kind":"village","population":800},"type":"Feature"},{"geometry":{"coordinates":[35.3772356,30.9330032],"type":"Point"},"properties":{"name":"Neot HaKikar","kind":"village","population":448},"type":"Feature"},{"geometry":{"coordinates":[35.5446083,33.195939],"type":"Point"},"properties":{"name":"Manara","kind":"village","population":284},"type":"Feature"},{"geometry":{"coordinates":[35.0935521,32.7519478],"type":"Point"},"properties":{"name":"Kfar Hassidim","kind":"village","population":800},"type":"Feature"},{"geometry":{"coordinates":[34.9420929,32.2569466],"type":"Point"},"properties":{"name":"Kfar Avoda","kind":"village","population":204},"type":"Feature"},{"geometry":{"coordinates":[35.417043,32.6562519],"type":"Point"},"properties":{"name":"Ein Dor","kind":"village","population":1056},"type":"Feature"},{"geometry":{"coordinates":[35.246984,32.8487331],"type":"Point"},"properties":{"name":"Shekhanya","kind":"village","population":772},"type":"Feature"},{"geometry":{"coordinates":[35.2979856,32.9975754],"type":"Point"},"properties":{"name":"Hosen","kind":"village","population":1193},"type":"Feature"},{"geometry":{"coordinates":[34.8874639,32.0651874],"type":"Point"},"properties":{"name":"Kfar Maas","kind":"village","population":800},"type":"Feature"},{"geometry":{"coordinates":[34.9494718,32.2762739],"type":"Point"},"properties":{"name":"Porat","kind":"village","population":1295},"type":"Feature"},{"geometry":{"coordinates":[35.0472445,32.3655683],"type":"Point"},"properties":{"name":"Ibtan","kind":"village","population":800},"type":"Feature"},{"geometry":{"coordinates":[35.4854373,32.441356],"type":"Point"},"properties":{"name":"Sdei Trumot","kind":"village","population":494},"type":"Feature"},{"geometry":{"coordinates":[35.5412309,32.9262991],"type":"Point"},"properties":{"name":"Amiad","kind":"village","population":538},"type":"Feature"},{"geometry":{"coordinates":[34.7626358,31.8553605],"type":"Point"},"properties":{"name":"Beit Gamliel","kind":"village","population":994},"type":"Feature"},{"geometry":{"coordinates":[34.9483587,32.1973859],"type":"Point"},"properties":{"name":"Nir Eliyahu","kind":"village","population":575},"type":"Feature"},{"geometry":{"coordinates":[35.2653811,32.5424671],"type":"Point"},"properties":{"name":"Barak","kind":"village","population":396},"type":"Feature"},{"geometry":{"coordinates":[35.543327,32.9791697],"type":"Point"},"properties":{"name":"Hatzor HaGlilit","kind":"town","population":10047},"type":"Feature"},{"geometry":{"coordinates":[34.9839023,31.8699629],"type":"Point"},"properties":{"name":"Sha'alvim","kind":"village","population":1813},"type":"Feature"},{"geometry":{"coordinates":[35.2056603,32.6114253],"type":"Point"},"properties":{"name":"HaYogev","kind":"village","population":833},"type":"Feature"},{"geometry":{"coordinates":[35.4019279,32.9406357],"type":"Point"},"properties":{"name":"Ein al-Asad","kind":"village","population":800},"type":"Feature"},{"geometry":{"coordinates":[34.7708779,31.7346866],"type":"Point"},"properties":{"name":"Arugot","kind":"village","population":1154},"type":"Feature"},{"geometry":{"coordinates":[34.6268196,31.6678257],"type":"Point"},"properties":{"name":"Berekhya","kind":"village","population":1242},"type":"Feature"},{"geometry":{"coordinates":[35.1534987,31.7527467],"type":"Point"},"properties":{"name":"Ora","kind":"village","population":1295},"type":"Feature"},{"geometry":{"coordinates":[35.359246,32.5487479],"type":"Point"},"properties":{"name":"Gidona","kind":"village","population":509},"type":"Feature"},{"geometry":{"coordinates":[35.5783318,32.681369],"type":"Point"},"properties":{"name":"Afikim","kind":"village","population":1488},"type":"Feature"},{"geometry":{"coordinates":[34.9462929,31.6702146],"type":"Point"},"properties":{"name":"Giv'at Yeshayahu","kind":"village","population":798},"type":"Feature"},{"geometry":{"coordinates":[34.9871687,31.9344938],"type":"Point"},"properties":{"name":"Mevo Modiim","kind":"village","population":238},"type":"Feature"},{"geometry":{"coordinates":[35.165698,32.9533067],"type":"Point"},"properties":{"name":"Kafr Yasif","kind":"village","population":10394},"type":"Feature"},{"geometry":{"coordinates":[35.0029516,32.5994386],"type":"Point"},"properties":{"name":"Bat Shlomo","kind":"village","population":633},"type":"Feature"},{"geometry":{"coordinates":[35.4819367,32.4718472],"type":"Point"},"properties":{"name":"Shluhot","kind":"village","population":465},"type":"Feature"},{"geometry":{"coordinates":[35.5006493,32.9775883],"type":"Point"},"properties":{"name":"Birya","kind":"village","population":800},"type":"Feature"},{"geometry":{"coordinates":[34.9619508,32.7290313],"type":"Point"},"properties":{"name":"Megadim","kind":"village","population":1391},"type":"Feature"},{"geometry":{"coordinates":[34.8792303,31.7404809],"type":"Point"},"properties":{"name":"Gefen","kind":"village","population":427},"type":"Feature"},{"geometry":{"coordinates":[34.713287,31.4485403],"type":"Point"},"properties":{"name":"Sde Zvi","kind":"village","population":700},"type":"Feature"},{"geometry":{"coordinates":[34.9387948,32.1718831],"type":"Point"},"properties":{"name":"Neve Yamin","kind":"village","population":800},"type":"Feature"},{"geometry":{"coordinates":[34.876063,32.1685932],"type":"Point"},"properties":{"name":"Givat Hen","kind":"village","population":364},"type":"Feature"},{"geometry":{"coordinates":[35.4527711,32.8749932],"type":"Point"},"properties":{"name":"Kallanit","kind":"village","population":260},"type":"Feature"},{"geometry":{"coordinates":[35.0073522,31.7481682],"type":"Point"},"properties":{"name":"Mahseya","kind":"village","population":498},"type":"Feature"},{"geometry":{"coordinates":[35.4499969,32.9374962],"type":"Point"},"properties":{"name":"Amirim","kind":"village","population":865},"type":"Feature"},{"geometry":{"coordinates":[35.2643296,32.5487129],"type":"Point"},"properties":{"name":"Hever","kind":"village","population":874},"type":"Feature"},{"geometry":{"coordinates":[34.919009,31.8880132],"type":"Point"},"properties":{"name":"Beit Hashmonai","kind":"village","population":2172},"type":"Feature"},{"geometry":{"coordinates":[34.9715506,32.7613834],"type":"Point"},"properties":{"name":"Tirat Karmel","kind":"town","population":28753},"type":"Feature"},{"geometry":{"coordinates":[34.3968932,30.903912],"type":"Point"},"properties":{"name":"Nitzanei Sinai","kind":"village","population":303},"type":"Feature"},{"geometry":{"coordinates":[35.4174978,32.4780173],"type":"Point"},"properties":{"name":"Maale Gilboa","kind":"village","population":843},"type":"Feature"},{"geometry":{"coordinates":[35.0615698,31.7169307],"type":"Point"},"properties":{"name":"Mata","kind":"village","population":951},"type":"Feature"},{"geometry":{"coordinates":[35.3502704,32.8361797],"type":"Point"},"properties":{"name":"Avtalion","kind":"village","population":466},"type":"Feature"},{"geometry":{"coordinates":[34.3994488,31.3741608],"type":"Point"},"properties":{"name":"Kisufim","kind":"village","population":294},"type":"Feature"},{"geometry":{"coordinates":[34.5969696,31.526474],"type":"Point"},"properties":{"name":"Sderot","kind":"town","population":33002},"type":"Feature"},{"geometry":{"coordinates":[34.7487221,31.5728416],"type":"Point"},"properties":{"name":"Eitan","kind":"village","population":565},"type":"Feature"},{"geometry":{"coordinates":[35.2137501,33.0057124],"type":"Point"},"properties":{"name":"Gaaton","kind":"village","population":725},"type":"Feature"},{"geometry":{"coordinates":[34.6208537,31.3125831],"type":"Point"},"properties":{"name":"Ofakim","kind":"town","population":35506},"type":"Feature"},{"geometry":{"coordinates":[35.0752109,32.8363747],"type":"Point"},"properties":{"name":"Kiryat Motzkin","kind":"town","population":48001},"type":"Feature"},{"geometry":{"coordinates":[34.8717789,31.9061802],"type":"Point"},"properties":{"name":"Mazliah","kind":"village","population":1346},"type":"Feature"},{"geometry":{"coordinates":[35.32134,32.5623514],"type":"Point"},"properties":{"name":"Yizra'el","kind":"village","population":542},"type":"Feature"},{"geometry":{"coordinates":[35.6236405,32.7269806],"type":"Point"},"properties":{"name":"HaOn","kind":"village","population":179},"type":"Feature"},{"geometry":{"coordinates":[34.8629537,31.8623432],"type":"Point"},"properties":{"name":"Yaziz","kind":"village","population":848},"type":"Feature"},{"geometry":{"coordinates":[35.4338884,33.0586061],"type":"Point"},"properties":{"name":"Bar'am","kind":"village","population":672},"type":"Feature"},{"geometry":{"coordinates":[35.0576452,32.5978839],"type":"Point"},"properties":{"name":"Ramot Menashe","kind":"village","population":1244},"type":"Feature"},{"geometry":{"coordinates":[34.7639978,31.753729],"type":"Point"},"properties":{"name":"Talmei Yehiel","kind":"village","population":1015},"type":"Feature"},{"geometry":{"coordinates":[34.874131,31.6472934],"type":"Point"},"properties":{"name":"Beit Nir","kind":"village","population":616},"type":"Feature"},{"geometry":{"coordinates":[35.4074874,33.0524574],"type":"Point"},"properties":{"name":"Dovev","kind":"village","population":800},"type":"Feature"},{"geometry":{"coordinates":[35.3996519,32.5561076],"type":"Point"},"properties":{"name":"Tel Yosseph","kind":"village","population":586},"type":"Feature"},{"geometry":{"coordinates":[35.3535015,32.9327346],"type":"Point"},"properties":{"name":"Shezor","kind":"village","population":306},"type":"Feature"},{"geometry":{"coordinates":[35.2512054,32.8659821],"type":"Point"},"properties":{"name":"Atsmon","kind":"village","population":1228},"type":"Feature"},{"geometry":{"coordinates":[34.8000445,31.788823],"type":"Point"},"properties":{"name":"Hafetz Haim","kind":"village","population":575},"type":"Feature"},{"geometry":{"coordinates":[35.6091616,33.0511117],"type":"Point"},"properties":{"name":"Hulata","kind":"village","population":754},"type":"Feature"},{"geometry":{"coordinates":[34.965419,31.7516368],"type":"Point"},"properties":{"name":"Yishi","kind":"village","population":848},"type":"Feature"},{"geometry":{"coordinates":[34.7437672,31.4143179],"type":"Point"},"properties":{"name":"Shoval","kind":"village","population":901},"type":"Feature"},{"geometry":{"coordinates":[35.4354282,32.9433182],"type":"Point"},"properties":{"name":"Shefer","kind":"village","population":428},"type":"Feature"},{"geometry":{"coordinates":[34.9481658,32.1375681],"type":"Point"},"properties":{"name":"Hagor","kind":"village","population":1146},"type":"Feature"},{"geometry":{"coordinates":[34.7982712,31.8777084],"type":"Point"},"properties":{"name":"Gan Shlomo (Kvutzat Shiller)","kind":"village","population":800},"type":"Feature"},{"geometry":{"coordinates":[35.0073711,32.4629224],"type":"Point"},"properties":{"name":"Ein Shemer","kind":"village","population":689},"type":"Feature"},{"geometry":{"coordinates":[35.1570974,33.0629442],"type":"Point"},"properties":{"name":"Matsuva","kind":"village","population":1163},"type":"Feature"},{"geometry":{"coordinates":[35.3672231,32.9363871],"type":"Point"},"properties":{"name":"Rama","kind":"village","population":7798},"type":"Feature"},{"geometry":{"coordinates":[34.7693634,31.7792702],"type":"Point"},"properties":{"name":"Hatsav","kind":"village","population":1525},"type":"Feature"},{"geometry":{"coordinates":[35.1603051,32.5954691],"type":"Point"},"properties":{"name":"Midrach Oz","kind":"village","population":822},"type":"Feature"},{"geometry":{"coordinates":[34.4911156,31.4241619],"type":"Point"},"properties":{"name":"Beeri","kind":"village","population":1071},"type":"Feature"},{"geometry":{"coordinates":[35.3237725,32.5231227],"type":"Point"},"properties":{"name":"Sandala","kind":"village","population":800},"type":"Feature"},{"geometry":{"coordinates":[34.9703305,32.1310918],"type":"Point"},"properties":{"name":"Kfar Bara","kind":"village","population":3946},"type":"Feature"},{"geometry":{"coordinates":[34.7317085,31.6495132],"type":"Point"},"properties":{"name":"Revaha","kind":"village","population":573},"type":"Feature"},{"geometry":{"coordinates":[35.2976327,32.5140208],"type":"Point"},"properties":{"name":"Muqeible","kind":"village","population":800},"type":"Feature"},{"geometry":{"coordinates":[34.6780963,31.4505907],"type":"Point"},"properties":{"name":"Klachim","kind":"village","population":677},"type":"Feature"},{"geometry":{"coordinates":[34.753611,31.8434985],"type":"Point"},"properties":{"name":"Benaya","kind":"village","population":745},"type":"Feature"},{"geometry":{"coordinates":[34.8993144,32.0470353],"type":"Point"},"properties":{"name":"Magshimim","kind":"village","population":1091},"type":"Feature"},{"geometry":{"coordinates":[35.0596217,29.8959204],"type":"Point"},"properties":{"name":"Yotvata","kind":"village","population":743},"type":"Feature"},{"geometry":{"coordinates":[34.6977854,31.3253413],"type":"Point"},"properties":{"name":"Eshel HaNasi","kind":"village","population":309},"type":"Feature"},{"geometry":{"coordinates":[34.7599212,31.9447315],"type":"Point"},"properties":{"name":"Gan Soreq","kind":"village","population":703},"type":"Feature"},{"geometry":{"coordinates":[34.606739,31.4239086],"type":"Point"},"properties":{"name":"Beit HaGaddi","kind":"village","population":867},"type":"Feature"},{"geometry":{"coordinates":[35.446739,32.6382136],"type":"Point"},"properties":{"name":"Gazit","kind":"village","population":807},"type":"Feature"},{"geometry":{"coordinates":[34.7643312,31.5748942],"type":"Point"},"properties":{"name":"Even Shemuel","kind":"village","population":2287},"type":"Feature"},{"geometry":{"coordinates":[34.6563769,31.7366309],"type":"Point"},"properties":{"name":"Beit Ezra","kind":"village","population":1072},"type":"Feature"},{"geometry":{"coordinates":[35.2741896,32.7013318],"type":"Point"},"properties":{"name":"Kfar HaHoresh","kind":"village","population":767},"type":"Feature"},{"geometry":{"coordinates":[34.7751348,31.7007444],"type":"Point"},"properties":{"name":"Kedma","kind":"village","population":800},"type":"Feature"},{"geometry":{"coordinates":[35.3076714,32.6051468],"type":"Point"},"properties":{"name":"Kibbuts Merhavya","kind":"village","population":800},"type":"Feature"},{"geometry":{"coordinates":[34.7737889,31.921288],"type":"Point"},"properties":{"name":"Bet Oved","kind":"village","population":259},"type":"Feature"},{"geometry":{"coordinates":[34.7072589,31.9334124],"type":"Point"},"properties":{"name":"Palmahim","kind":"village","population":745},"type":"Feature"},{"geometry":{"coordinates":[35.4988072,33.0521283],"type":"Point"},"properties":{"name":"Alma","kind":"village","population":698},"type":"Feature"},{"geometry":{"coordinates":[35.6591721,33.163887],"type":"Point"},"properties":{"name":"Shamir","kind":"village","population":921},"type":"Feature"},{"geometry":{"coordinates":[34.6784685,31.7575803],"type":"Point"},"properties":{"name":"Sde Uziyahu","kind":"village","population":1617},"type":"Feature"},{"geometry":{"coordinates":[34.8686714,32.2203585],"type":"Point"},"properties":{"name":"Bnei Zion","kind":"village","population":1322},"type":"Feature"},{"geometry":{"coordinates":[35.5965774,33.160576],"type":"Point"},"properties":{"name":"Neot Mordekhay","kind":"village","population":694},"type":"Feature"},{"geometry":{"coordinates":[34.931902,32.3918515],"type":"Point"},"properties":{"name":"Givat Hayyim (Meuhad)","kind":"village","population":1064},"type":"Feature"},{"geometry":{"coordinates":[35.5707828,33.2074733],"type":"Point"},"properties":{"name":"Kiryat Shmona","kind":"town","population":25000},"type":"Feature"},{"geometry":{"coordinates":[35.5820015,32.662065],"type":"Point"},"properties":{"name":"Ashdot Yaakov Meuhad","kind":"village","population":800},"type":"Feature"},{"geometry":{"coordinates":[35.0034441,32.4838889],"type":"Point"},"properties":{"name":"Kfar Pines","kind":"village","population":1102},"type":"Feature"},{"geometry":{"coordinates":[35.5512649,32.4933804],"type":"Point"},"properties":{"name":"Maoz Hayim","kind":"village","population":505},"type":"Feature"},{"geometry":{"coordinates":[35.468049,33.0388862],"type":"Point"},"properties":{"name":"Kerem Ben Zimra","kind":"village","population":535},"type":"Feature"},{"geometry":{"coordinates":[35.4145248,32.5915062],"type":"Point"},"properties":{"name":"Ramat Zevi","kind":"village","population":768},"type":"Feature"},{"geometry":{"coordinates":[35.3023184,32.8638052],"type":"Point"},"properties":{"name":"Sakhnin","kind":"city","population":80000},"type":"Feature"},{"geometry":{"coordinates":[34.9092219,32.3802538],"type":"Point"},"properties":{"name":"Elyashiv","kind":"village","population":715},"type":"Feature"},{"geometry":{"coordinates":[35.3954738,32.7184192],"type":"Point"},"properties":{"name":"Beit Keshet","kind":"village","population":746},"type":"Feature"},{"geometry":{"coordinates":[34.7025584,31.6366498],"type":"Point"},"properties":{"name":"Otzem","kind":"village","population":774},"type":"Feature"},{"geometry":{"coordinates":[34.3577888,31.2378574],"type":"Point"},"properties":{"name":"Nir Yizhak","kind":"village","population":633},"type":"Feature"},{"geometry":{"coordinates":[34.8108048,31.7926752],"type":"Point"},"properties":{"name":"Beit Hilkia","kind":"village","population":1480},"type":"Feature"},{"geometry":{"coordinates":[35.0059119,31.6729774],"type":"Point"},"properties":{"name":"Neve Michael","kind":"village","population":883},"type":"Feature"},{"geometry":{"coordinates":[35.1421972,32.6105821],"type":"Point"},"properties":{"name":"Mishmar HaEmek","kind":"village","population":1278},"type":"Feature"},{"geometry":{"coordinates":[35.1206465,32.6437923],"type":"Point"},"properties":{"name":"HaZorea","kind":"village","population":930},"type":"Feature"},{"geometry":{"coordinates":[35.4228553,32.6452471],"type":"Point"},"properties":{"name":"Kfar Misr","kind":"village","population":800},"type":"Feature"},{"geometry":{"coordinates":[35.1352113,30.3075298],"type":"Point"},"properties":{"name":"Beer Menuha","kind":"village","population":800},"type":"Feature"},{"geometry":{"coordinates":[35.3072033,32.9802989],"type":"Point"},"properties":{"name":"Kfar Sumei","kind":"village","population":800},"type":"Feature"},{"geometry":{"coordinates":[34.5915141,31.3963714],"type":"Point"},"properties":{"name":"Givolim","kind":"village","population":426},"type":"Feature"},{"geometry":{"coordinates":[35.0358704,30.0389533],"type":"Point"},"properties":{"name":"Neve Harif","kind":"village","population":111},"type":"Feature"},{"geometry":{"coordinates":[34.8216119,31.7978401],"type":"Point"},"properties":{"name":"Yad Binyamin","kind":"village","population":4278},"type":"Feature"},{"geometry":{"coordinates":[34.9242354,32.1333242],"type":"Point"},"properties":{"name":"Neve Yaraq","kind":"village","population":1284},"type":"Feature"},{"geometry":{"coordinates":[34.9974416,32.2889798],"type":"Point"},"properties":{"name":"Shaar Efraim","kind":"village","population":1997},"type":"Feature"},{"geometry":{"coordinates":[35.305222,32.7784833],"type":"Point"},"properties":{"name":"Rumat al-Heib","kind":"village","population":800},"type":"Feature"},{"geometry":{"coordinates":[35.1467283,32.9295345],"type":"Point"},"properties":{"name":"Jadeida-Makr","kind":"village","population":800},"type":"Feature"},{"geometry":{"coordinates":[34.4652467,31.2111135],"type":"Point"},"properties":{"name":"Gvulot","kind":"village","population":421},"type":"Feature"},{"geometry":{"coordinates":[34.8197755,32.1853666],"type":"Point"},"properties":{"name":"Kfar Shmaryahu","kind":"village","population":1951},"type":"Feature"},{"geometry":{"coordinates":[35.56444,32.7231985],"type":"Point"},"properties":{"name":"Kinneret","kind":"village","population":800},"type":"Feature"},{"geometry":{"coordinates":[34.4982114,31.4724074],"type":"Point"},"properties":{"name":"Nahal Oz","kind":"village","population":479},"type":"Feature"},{"geometry":{"coordinates":[35.2359604,32.5634638],"type":"Point"},"properties":{"name":"Mle'a","kind":"village","population":363},"type":"Feature"},{"geometry":{"coordinates":[35.1130278,33.0595032],"type":"Point"},"properties":{"name":"Liman","kind":"village","population":684},"type":"Feature"},{"geometry":{"coordinates":[34.9897773,32.7016557],"type":"Point"},"properties":{"name":"Yemin Orde","kind":"village","population":800},"type":"Feature"},{"geometry":{"coordinates":[35.4241459,32.9161093],"type":"Point"},"properties":{"name":"Kfar Hananya","kind":"village","population":781},"type":"Feature"},{"geometry":{"coordinates":[34.9418915,31.9276731],"type":"Point"},"properties":{"name":"Gimzo","kind":"village","population":1194},"type":"Feature"},{"geometry":{"coordinates":[35.1071186,31.7227202],"type":"Point"},"properties":{"name":"Mevo Betar","kind":"village","population":1058},"type":"Feature"},{"geometry":{"coordinates":[35.3781433,32.9644737],"type":"Point"},"properties":{"name":"Beit Jann","kind":"village","population":12433},"type":"Feature"},{"geometry":{"coordinates":[35.4382178,32.5510774],"type":"Point"},"properties":{"name":"Beit HaShita","kind":"village","population":1275},"type":"Feature"},{"geometry":{"coordinates":[34.5666313,31.5605003],"type":"Point"},"properties":{"name":"Erez","kind":"village","population":616},"type":"Feature"},{"geometry":{"coordinates":[35.3960008,32.6937221],"type":"Point"},"properties":{"name":"Shibli","kind":"village","population":800},"type":"Feature"},{"geometry":{"coordinates":[34.986604,29.7101748],"type":"Point"},"properties":{"name":"Beer Ora","kind":"village","population":1231},"type":"Feature"},{"geometry":{"coordinates":[35.0345429,32.5240949],"type":"Point"},"properties":{"name":"Regavim","kind":"village","population":546},"type":"Feature"},{"geometry":{"coordinates":[34.962663,29.5812438],"type":"Point"},"properties":{"name":"Eilot","kind":"village","population":375},"type":"Feature"},{"geometry":{"coordinates":[34.5137154,31.4521295],"type":"Point"},"properties":{"name":"Alumim","kind":"village","population":531},"type":"Feature"},{"geometry":{"coordinates":[34.6104564,31.6374791],"type":"Point"},"properties":{"name":"Beit Shikma","kind":"village","population":800},"type":"Feature"},{"geometry":{"coordinates":[34.8961822,32.31478],"type":"Point"},"properties":{"name":"Nordia","kind":"village","population":800},"type":"Feature"},{"geometry":{"coordinates":[34.5807617,31.5193144],"type":"Point"},"properties":{"name":"Nir Am","kind":"village","population":726},"type":"Feature"},{"geometry":{"coordinates":[35.6463364,33.2272088],"type":"Point"},"properties":{"name":"Shaar Yashuv","kind":"village","population":649},"type":"Feature"},{"geometry":{"coordinates":[35.1241783,33.0042191],"type":"Point"},"properties":{"name":"Ben Ammi","kind":"village","population":768},"type":"Feature"},{"geometry":{"coordinates":[34.9000198,32.344942],"type":"Point"},"properties":{"name":"Kfar Yedidya","kind":"village","population":749},"type":"Feature"},{"geometry":{"coordinates":[34.7791534,31.6697258],"type":"Point"},"properties":{"name":"Segula","kind":"village","population":740},"type":"Feature"},{"geometry":{"coordinates":[34.9454021,32.6287327],"type":"Point"},"properties":{"name":"Ein Ayyala","kind":"village","population":1147},"type":"Feature"},{"geometry":{"coordinates":[34.7706958,31.5522246],"type":"Point"},"properties":{"name":"Ahuzam","kind":"village","population":554},"type":"Feature"},{"geometry":{"coordinates":[35.2448954,32.5588503],"type":"Point"},"properties":{"name":"Gadish","kind":"village","population":407},"type":"Feature"},{"geometry":{"coordinates":[34.8805118,32.0674422],"type":"Point"},"properties":{"name":"Gat Rimmon","kind":"village","population":298},"type":"Feature"},{"geometry":{"coordinates":[35.2383757,32.8905934],"type":"Point"},"properties":{"name":"Sha'ab","kind":"village","population":7469},"type":"Feature"},{"geometry":{"coordinates":[35.5519473,33.1286135],"type":"Point"},"properties":{"name":"Yiftah","kind":"village","population":605},"type":"Feature"},{"geometry":{"coordinates":[35.1565626,31.7934936],"type":"Point"},"properties":{"name":"Motza Illit","kind":"village","population":1635},"type":"Feature"},{"geometry":{"coordinates":[35.2249937,32.6641744],"type":"Point"},"properties":{"name":"Sarid","kind":"village","population":889},"type":"Feature"},{"geometry":{"coordinates":[35.2597388,33.0167071],"type":"Point"},"properties":{"name":"Meona","kind":"village","population":965},"type":"Feature"},{"geometry":{"coordinates":[35.126841,32.7161543],"type":"Point"},"properties":{"name":"Kiryat Tivon","kind":"village","population":19180},"type":"Feature"},{"geometry":{"coordinates":[35.0097885,31.7801952],"type":"Point"},"properties":{"name":"Eshtaol","kind":"village","population":1191},"type":"Feature"},{"geometry":{"coordinates":[35.1079584,32.7116768],"type":"Point"},"properties":{"name":"Oranim","kind":"village","population":116},"type":"Feature"},{"geometry":{"coordinates":[35.2599068,32.8927231],"type":"Point"},"properties":{"name":"Shorashim","kind":"village","population":599},"type":"Feature"},{"geometry":{"coordinates":[34.9170982,32.4012716],"type":"Point"},"properties":{"name":"Herev Le'et","kind":"village","population":940},"type":"Feature"},{"geometry":{"coordinates":[34.8473705,31.9885794],"type":"Point"},"properties":{"name":"Kfar Habad","kind":"village","population":6720},"type":"Feature"},{"geometry":{"coordinates":[35.1663465,32.9010935],"type":"Point"},"properties":{"name":"Yasur","kind":"village","population":923},"type":"Feature"},{"geometry":{"coordinates":[34.79065,31.7697849],"type":"Point"},"properties":{"name":"Bnei Reem","kind":"village","population":1379},"type":"Feature"},{"geometry":{"coordinates":[34.6115031,31.5909454],"type":"Point"},"properties":{"name":"Gvaram","kind":"village","population":674},"type":"Feature"},{"geometry":{"coordinates":[34.752375,31.8026404],"type":"Point"},"properties":{"name":"Kannot","kind":"village","population":364},"type":"Feature"},{"geometry":{"coordinates":[35.1206998,31.7826765],"type":"Point"},"properties":{"name":"Tzuba","kind":"village","population":621},"type":"Feature"},{"geometry":{"coordinates":[34.7213367,31.8318165],"type":"Point"},"properties":{"name":"Kfar Aviv","kind":"village","population":833},"type":"Feature"},{"geometry":{"coordinates":[34.7924638,31.7463333],"type":"Point"},"properties":{"name":"Kfar HaRif","kind":"village","population":800},"type":"Feature"},{"geometry":{"coordinates":[35.3063551,32.5578557],"type":"Point"},"properties":{"name":"Avital","kind":"village","population":515},"type":"Feature"},{"geometry":{"coordinates":[35.1794979,32.6961671],"type":"Point"},"properties":{"name":"Beit Shearim","kind":"village","population":815},"type":"Feature"},{"geometry":{"coordinates":[35.1351189,31.7629815],"type":"Point"},"properties":{"name":"Even Sappir","kind":"village","population":699},"type":"Feature"},{"geometry":{"coordinates":[34.9097723,32.3070353],"type":"Point"},"properties":{"name":"Pardesiya","kind":"village","population":800},"type":"Feature"},{"geometry":{"coordinates":[34.6997994,31.803614],"type":"Point"},"properties":{"name":"Gan HaDarom","kind":"village","population":605},"type":"Feature"},{"geometry":{"coordinates":[34.7563983,31.7448291],"type":"Point"},"properties":{"name":"Kfar Ahim","kind":"village","population":861},"type":"Feature"},{"geometry":{"coordinates":[34.8623473,31.9279988],"type":"Point"},"properties":{"name":"Ramla","kind":"town","population":79132},"type":"Feature"},{"geometry":{"coordinates":[35.1846411,30.6140945],"type":"Point"},"properties":{"name":"Sapir","kind":"village","population":498},"type":"Feature"},{"geometry":{"coordinates":[35.3903478,32.6140155],"type":"Point"},"properties":{"name":"Na'ura","kind":"village","population":800},"type":"Feature"},{"geometry":{"coordinates":[35.4944564,32.8800375],"type":"Point"},"properties":{"name":"Hukok","kind":"village","population":646},"type":"Feature"},{"geometry":{"coordinates":[35.5376169,32.7436659],"type":"Point"},"properties":{"name":"Poria  Neve Oved","kind":"village","population":800},"type":"Feature"},{"geometry":{"coordinates":[35.1389429,32.8205694],"type":"Point"},"properties":{"name":"Gilam","kind":"village","population":800},"type":"Feature"},{"geometry":{"coordinates":[35.5010491,32.7993441],"type":"Point"},"properties":{"name":"Kfar Hitim","kind":"village","population":600},"type":"Feature"},{"geometry":{"coordinates":[35.1538972,30.3626131],"type":"Point"},"properties":{"name":"Paran","kind":"village","population":537},"type":"Feature"},{"geometry":{"coordinates":[35.657851,33.1946879],"type":"Point"},"properties":{"name":"Kfar Szold","kind":"village","population":731},"type":"Feature"},{"geometry":{"coordinates":[34.7951088,31.6268616],"type":"Point"},"properties":{"name":"Gat","kind":"village","population":800},"type":"Feature"},{"geometry":{"coordinates":[34.9022119,31.80506],"type":"Point"},"properties":{"name":"Tal Shahar","kind":"village","population":1350},"type":"Feature"},{"geometry":{"coordinates":[34.6819467,31.8244735],"type":"Point"},"properties":{"name":"Nir Gallim","kind":"village","population":1333},"type":"Feature"},{"geometry":{"coordinates":[35.1203388,31.8100172],"type":"Point"},"properties":{"name":"Qiryat Anavim","kind":"village","population":489},"type":"Feature"},{"geometry":{"coordinates":[34.7262903,31.7338758],"type":"Point"},"properties":{"name":"Beer Tuvia","kind":"village","population":1313},"type":"Feature"},{"geometry":{"coordinates":[34.9549687,32.6636235],"type":"Point"},"properties":{"name":"Geva Karmel","kind":"village","population":1205},"type":"Feature"},{"geometry":{"coordinates":[35.2668276,32.934772],"type":"Point"},"properties":{"name":"Deir al Asad","kind":"town","population":25000},"type":"Feature"},{"geometry":{"coordinates":[35.0482785,32.6922393],"type":"Point"},"properties":{"name":"Daliyat al-Karmel","kind":"village","population":800},"type":"Feature"},{"geometry":{"coordinates":[35.0257351,30.0486435],"type":"Point"},"properties":{"name":"Neot Smadar","kind":"village","population":233},"type":"Feature"},{"geometry":{"coordinates":[35.0955581,32.4965507],"type":"Point"},"properties":{"name":"Ar'ara","kind":"village","population":26147},"type":"Feature"},{"geometry":{"coordinates":[34.9443771,31.6600453],"type":"Point"},"properties":{"name":"Tzafririm","kind":"village","population":428},"type":"Feature"},{"geometry":{"coordinates":[34.9185387,32.2536471],"type":"Point"},"properties":{"name":"Tel Mond","kind":"village","population":14477},"type":"Feature"},{"geometry":{"coordinates":[35.3699046,32.8936503],"type":"Point"},"properties":{"name":"Sallama","kind":"village","population":3552},"type":"Feature"},{"geometry":{"coordinates":[34.5730157,31.6644874],"type":"Point"},"properties":{"name":"Ashkelon","kind":"city","population":153138},"type":"Feature"},{"geometry":{"coordinates":[35.0671011,32.7152045],"type":"Point"},"properties":{"name":"Isfiya","kind":"village","population":12896},"type":"Feature"},{"geometry":{"coordinates":[35.3488686,32.6307267],"type":"Point"},"properties":{"name":"Nein","kind":"village","population":1994},"type":"Feature"},{"geometry":{"coordinates":[35.2513938,32.9847231],"type":"Point"},"properties":{"name":"Yanuh","kind":"village","population":800},"type":"Feature"},{"geometry":{"coordinates":[34.8234798,32.2288879],"type":"Point"},"properties":{"name":"Gaash","kind":"village","population":946},"type":"Feature"},{"geometry":{"coordinates":[35.0642049,29.941716],"type":"Point"},"properties":{"name":"Grofit","kind":"village","population":265},"type":"Feature"},{"geometry":{"coordinates":[34.5253818,31.4216668],"type":"Point"},"properties":{"name":"Shokeda","kind":"village","population":665},"type":"Feature"},{"geometry":{"coordinates":[35.4775438,32.4818532],"type":"Point"},"properties":{"name":"Reshafim","kind":"village","population":1256},"type":"Feature"},{"geometry":{"coordinates":[34.923418,32.0523036],"type":"Point"},"properties":{"name":"Mazor","kind":"village","population":1330},"type":"Feature"},{"geometry":{"coordinates":[35.1986272,32.5558926],"type":"Point"},"properties":{"name":"Givat Oz","kind":"village","population":501},"type":"Feature"},{"geometry":{"coordinates":[35.090335,32.4743359],"type":"Point"},"properties":{"name":"Barta`a","kind":"town","population":25000},"type":"Feature"},{"geometry":{"coordinates":[34.9337333,31.9682459],"type":"Point"},"properties":{"name":"Hadid","kind":"village","population":931},"type":"Feature"},{"geometry":{"coordinates":[34.842087,32.2485734],"type":"Point"},"properties":{"name":"Yakum","kind":"village","population":813},"type":"Feature"},{"geometry":{"coordinates":[34.9009264,31.8224828],"type":"Point"},"properties":{"name":"Mishmar David","kind":"village","population":1367},"type":"Feature"},{"geometry":{"coordinates":[34.6793054,31.7340046],"type":"Point"},"properties":{"name":"Givati","kind":"village","population":1072},"type":"Feature"},{"geometry":{"coordinates":[34.9321169,32.314504],"type":"Point"},"properties":{"name":"Kfar Yona","kind":"village","population":29450},"type":"Feature"},{"geometry":{"coordinates":[34.9559212,31.830965],"type":"Point"},"properties":{"name":"Nahshon","kind":"village","population":608},"type":"Feature"},{"geometry":{"coordinates":[34.6670889,31.6274859],"type":"Point"},"properties":{"name":"Kokhav Michael","kind":"village","population":1122},"type":"Feature"},{"geometry":{"coordinates":[35.2642924,32.8547224],"type":"Point"},"properties":{"name":"Rakefet","kind":"village","population":1038},"type":"Feature"},{"geometry":{"coordinates":[34.8728998,32.4062774],"type":"Point"},"properties":{"name":"Michmoret","kind":"village","population":1506},"type":"Feature"},{"geometry":{"coordinates":[34.9046905,32.3639465],"type":"Point"},"properties":{"name":"Maabarot","kind":"village","population":997},"type":"Feature"},{"geometry":{"coordinates":[35.5759521,33.0215976],"type":"Point"},"properties":{"name":"Ayelet HaShahar","kind":"village","population":1154},"type":"Feature"},{"geometry":{"coordinates":[35.1642671,32.9792441],"type":"Point"},"properties":{"name":"Amka","kind":"village","population":833},"type":"Feature"},{"geometry":{"coordinates":[34.7455072,31.6806835],"type":"Point"},"properties":{"name":"Zerahya","kind":"village","population":737},"type":"Feature"},{"geometry":{"coordinates":[35.2100551,32.8677008],"type":"Point"},"properties":{"name":"Kabul","kind":"village","population":14628},"type":"Feature"},{"geometry":{"coordinates":[35.4374472,32.6954933],"type":"Point"},"properties":{"name":"Shadmot Dvora","kind":"village","population":698},"type":"Feature"},{"geometry":{"coordinates":[35.0781325,32.7428565],"type":"Point"},"properties":{"name":"Yagur","kind":"village","population":1662},"type":"Feature"},{"geometry":{"coordinates":[35.5474069,32.7187697],"type":"Point"},"properties":{"name":"Poria  Kfar Avoda","kind":"village","population":800},"type":"Feature"},{"geometry":{"coordinates":[35.2107773,32.6747246],"type":"Point"},"properties":{"name":"Gvat","kind":"village","population":965},"type":"Feature"},{"geometry":{"coordinates":[34.5355347,31.470029],"type":"Point"},"properties":{"name":"Saad","kind":"village","population":838},"type":"Feature"},{"geometry":{"coordinates":[34.9394305,32.0827765],"type":"Point"},"properties":{"name":"Einat","kind":"village","population":850},"type":"Feature"},{"geometry":{"coordinates":[34.6364148,31.6873424],"type":"Point"},"properties":{"name":"Nir Yisrael","kind":"village","population":884},"type":"Feature"},{"geometry":{"coordinates":[35.5462845,32.7069863],"type":"Point"},"properties":{"name":"Alumot","kind":"village","population":445},"type":"Feature"},{"geometry":{"coordinates":[34.7455804,31.8247948],"type":"Point"},"properties":{"name":"Aseret","kind":"village","population":965},"type":"Feature"},{"geometry":{"coordinates":[35.098342,32.9833034],"type":"Point"},"properties":{"name":"Mazra'a","kind":"village","population":4115},"type":"Feature"},{"geometry":{"coordinates":[35.4312857,32.5160003],"type":"Point"},"properties":{"name":"Beit Alfa","kind":"village","population":1386},"type":"Feature"},{"geometry":{"coordinates":[35.1287689,30.0819416],"type":"Point"},"properties":{"name":"Yahel","kind":"village","population":267},"type":"Feature"},{"geometry":{"coordinates":[35.0943545,32.6480601],"type":"Point"},"properties":{"name":"Yoqneam Illit","kind":"town","population":25000},"type":"Feature"},{"geometry":{"coordinates":[35.0423428,32.5472691],"type":"Point"},"properties":{"name":"Givat Nili","kind":"village","population":704},"type":"Feature"},{"geometry":{"coordinates":[35.0035515,32.5167198],"type":"Point"},"properties":{"name":"Givat Ada","kind":"village","population":800},"type":"Feature"},{"geometry":{"coordinates":[35.2861087,32.6509756],"type":"Point"},"properties":{"name":"Mizra","kind":"village","population":864},"type":"Feature"},{"geometry":{"coordinates":[35.3079001,32.5519235],"type":"Point"},"properties":{"name":"Yael","kind":"village","population":800},"type":"Feature"},{"geometry":{"coordinates":[35.1012522,32.530405],"type":"Point"},"properties":{"name":"Muawiya","kind":"village","population":800},"type":"Feature"},{"geometry":{"coordinates":[34.729583,31.8568839],"type":"Point"},"properties":{"name":"Ben Zakkay","kind":"village","population":1080},"type":"Feature"},{"geometry":{"coordinates":[34.7613397,31.7160922],"type":"Point"},"properties":{"name":"Timorim","kind":"village","population":756},"type":"Feature"},{"geometry":{"coordinates":[34.8769601,32.279642],"type":"Point"},"properties":{"name":"Kfar Netter","kind":"village","population":1143},"type":"Feature"},{"geometry":{"coordinates":[35.2523745,32.9030676],"type":"Point"},"properties":{"name":"Tzurit","kind":"village","population":949},"type":"Feature"},{"geometry":{"coordinates":[35.0991091,32.8811651],"type":"Point"},"properties":{"name":"Karay Naaman","kind":"village","population":800},"type":"Feature"},{"geometry":{"coordinates":[35.0703245,32.8502229],"type":"Point"},"properties":{"name":"Kiryat Yam","kind":"town","population":41095},"type":"Feature"},{"geometry":{"coordinates":[34.8301626,32.001945],"type":"Point"},"properties":{"name":"Beit Dagan","kind":"town","population":7823},"type":"Feature"},{"geometry":{"coordinates":[34.900238,32.2618622],"type":"Point"},"properties":{"name":"Bney Dror","kind":"village","population":1196},"type":"Feature"},{"geometry":{"coordinates":[35.0758253,32.589315],"type":"Point"},"properties":{"name":"Daliya","kind":"village","population":800},"type":"Feature"},{"geometry":{"coordinates":[35.2890861,32.6075587],"type":"Point"},"properties":{"name":"Afula","kind":"city","population":61519},"type":"Feature"},{"geometry":{"coordinates":[35.146103,32.7292179],"type":"Point"},"properties":{"name":"Ramat Hadassa","kind":"village","population":800},"type":"Feature"},{"geometry":{"coordinates":[35.2102543,33.0795856],"type":"Point"},"properties":{"name":"Adamit","kind":"village","population":286},"type":"Feature"},{"geometry":{"coordinates":[34.6024158,31.6275573],"type":"Point"},"properties":{"name":"Gea","kind":"village","population":972},"type":"Feature"},{"geometry":{"coordinates":[34.9317604,32.2653177],"type":"Point"},"properties":{"name":"Ein Vered","kind":"village","population":1564},"type":"Feature"},{"geometry":{"coordinates":[35.6038283,32.9748875],"type":"Point"},"properties":{"name":"Kfar HaNasi","kind":"village","population":988},"type":"Feature"},{"geometry":{"coordinates":[35.5203765,32.5201037],"type":"Point"},"properties":{"name":"Hamadya","kind":"village","population":439},"type":"Feature"},{"geometry":{"coordinates":[34.9118525,32.3897506],"type":"Point"},"properties":{"name":"Kfar Haro'eh","kind":"village","population":800},"type":"Feature"},{"geometry":{"coordinates":[34.8499267,31.915785],"type":"Point"},"properties":{"name":"Yashresh","kind":"village","population":966},"type":"Feature"},{"geometry":{"coordinates":[35.2941382,33.0736105],"type":"Point"},"properties":{"name":"Even Menahem","kind":"village","population":285},"type":"Feature"},{"geometry":{"coordinates":[35.004799,32.504959],"type":"Point"},"properties":{"name":"Kefar Glickson","kind":"village","population":356},"type":"Feature"},{"geometry":{"coordinates":[35.136107,33.0708449],"type":"Point"},"properties":{"name":"Bezet","kind":"village","population":449},"type":"Feature"},{"geometry":{"coordinates":[34.9051703,31.8693965],"type":"Point"},"properties":{"name":"Beit Uziel","kind":"village","population":659},"type":"Feature"},{"geometry":{"coordinates":[34.7186798,31.3641285],"type":"Point"},"properties":{"name":"Mishmar HaNegev","kind":"village","population":1124},"type":"Feature"},{"geometry":{"coordinates":[34.6575334,31.5774293],"type":"Point"},"properties":{"name":"Heletz","kind":"village","population":504},"type":"Feature"},{"geometry":{"coordinates":[34.5221474,31.609373],"type":"Point"},"properties":{"name":"Zikim","kind":"village","population":918},"type":"Feature"},{"geometry":{"coordinates":[35.352732,32.7233235],"type":"Point"},"properties":{"name":"Ein Mahel","kind":"town","population":13931},"type":"Feature"},{"geometry":{"coordinates":[35.5457217,32.7322318],"type":"Point"},"properties":{"name":"Poria Illit","kind":"village","population":800},"type":"Feature"},{"geometry":{"coordinates":[35.2422454,32.5641159],"type":"Point"},"properties":{"name":"Merkaz Omen","kind":"village","population":659},"type":"Feature"},{"geometry":{"coordinates":[35.3241745,33.0341637],"type":"Point"},"properties":{"name":"Elqosh","kind":"village","population":275},"type":"Feature"},{"geometry":{"coordinates":[34.9279083,32.1519602],"type":"Point"},"properties":{"name":"Elishama","kind":"village","population":1168},"type":"Feature"},{"geometry":{"coordinates":[34.9393308,32.2152641],"type":"Point"},"properties":{"name":"Ramat HaKovesh","kind":"village","population":1206},"type":"Feature"},{"geometry":{"coordinates":[34.9536543,32.152285],"type":"Point"},"properties":{"name":"Jaljulya","kind":"town","population":10609},"type":"Feature"},{"geometry":{"coordinates":[34.8616896,32.3610498],"type":"Point"},"properties":{"name":"Havazelet HaSharon","kind":"village","population":474},"type":"Feature"},{"geometry":{"coordinates":[35.5085407,32.7902724],"type":"Point"},"properties":{"name":"Mizpa","kind":"village","population":125},"type":"Feature"},{"geometry":{"coordinates":[35.19133,32.8209166],"type":"Point"},"properties":{"name":"Ibilin","kind":"village","population":800},"type":"Feature"},{"geometry":{"coordinates":[35.3239769,32.6815837],"type":"Point"},"properties":{"name":"Iksal","kind":"village","population":800},"type":"Feature"},{"geometry":{"coordinates":[34.676988,31.7453369],"type":"Point"},"properties":{"name":"Emunim","kind":"village","population":1007},"type":"Feature"},{"geometry":{"coordinates":[34.7145081,31.6084431],"type":"Point"},"properties":{"name":"Nir Hen","kind":"village","population":800},"type":"Feature"},{"geometry":{"coordinates":[35.1992749,32.542256],"type":"Point"},"properties":{"name":"Salim","kind":"village","population":800},"type":"Feature"},{"geometry":{"coordinates":[34.9143066,31.5324669],"type":"Point"},"properties":{"name":"Amazya","kind":"village","population":203},"type":"Feature"},{"geometry":{"coordinates":[34.9498546,32.451832],"type":"Point"},"properties":{"name":"Gan Shemuel","kind":"village","population":964},"type":"Feature"},{"geometry":{"coordinates":[35.3918678,32.6758493],"type":"Point"},"properties":{"name":"Umm al-Ghanam","kind":"village","population":6370},"type":"Feature"},{"geometry":{"coordinates":[34.64547,31.4695439],"type":"Point"},"properties":{"name":"Nir Aqiva","kind":"village","population":714},"type":"Feature"},{"geometry":{"coordinates":[34.7403755,31.8330746],"type":"Point"},"properties":{"name":"Shdema","kind":"village","population":586},"type":"Feature"},{"geometry":{"coordinates":[34.6769569,31.6457313],"type":"Point"},"properties":{"name":"Sde Yoav","kind":"village","population":607},"type":"Feature"},{"geometry":{"coordinates":[34.8469332,32.2647709],"type":"Point"},"properties":{"name":"Udim","kind":"village","population":1404},"type":"Feature"},{"geometry":{"coordinates":[35.5031884,32.7457141],"type":"Point"},"properties":{"name":"HaZorim","kind":"village","population":1134},"type":"Feature"},{"geometry":{"coordinates":[35.2970682,32.6302897],"type":"Point"},"properties":{"name":"Balfouriyya","kind":"village","population":556},"type":"Feature"},{"geometry":{"coordinates":[35.0961117,32.9036151],"type":"Point"},"properties":{"name":"Ein HaMifratz","kind":"village","population":1271},"type":"Feature"},{"geometry":{"coordinates":[35.058889,32.468056],"type":"Point"},"properties":{"name":"Umm al-Qutuf","kind":"village","population":800},"type":"Feature"},{"geometry":{"coordinates":[35.3097276,32.9916616],"type":"Point"},"properties":{"name":"Buqeia El Gharbiya","kind":"village","population":800},"type":"Feature"},{"geometry":{"coordinates":[35.4953414,32.9408113],"type":"Point"},"properties":{"name":"Akbara","kind":"village","population":800},"type":"Feature"},{"geometry":{"coordinates":[34.759748,31.6584287],"type":"Point"},"properties":{"name":"Zavdiel","kind":"village","population":629},"type":"Feature"},{"geometry":{"coordinates":[34.8964162,31.6123189],"type":"Point"},"properties":{"name":"Beit Guvrin","kind":"village","population":450},"type":"Feature"},{"geometry":{"coordinates":[34.9007465,31.8993715],"type":"Point"},"properties":{"name":"Yad Rambam","kind":"village","population":1116},"type":"Feature"},{"geometry":{"coordinates":[35.4011051,32.8349228],"type":"Point"},"properties":{"name":"Ilabun","kind":"village","population":800},"type":"Feature"},{"geometry":{"coordinates":[35.4238096,32.8684279],"type":"Point"},"properties":{"name":"Tefahot","kind":"village","population":492},"type":"Feature"},{"geometry":{"coordinates":[34.8934755,32.1670594],"type":"Point"},"properties":{"name":"Kfar Malal","kind":"village","population":306},"type":"Feature"},{"geometry":{"coordinates":[35.2513199,32.8436279],"type":"Point"},"properties":{"name":"Koranit","kind":"village","population":918},"type":"Feature"},{"geometry":{"coordinates":[35.6388846,32.7811125],"type":"Point"},"properties":{"name":"Ein Gev","kind":"village","population":666},"type":"Feature"},{"geometry":{"coordinates":[35.2841818,33.0818094],"type":"Point"},"properties":{"name":"Shomera","kind":"village","population":373},"type":"Feature"},